Codi_Sector_Activitat,Nom_Sector_Activitat,Codi_Grup_Activitat,Nom_Grup_Activitat,Codi_Activitat_2022,Nom_Activitat,Nom_Local,Latitud,Longitud,Direccio_Unica,Nom_Via
3,Locals buits en venda i lloguer,0,Grup no definit,30,Locals buits en venda i lloguer,SN,41.373521789,2.170734555,"361009, 49-49, LOC 10",VILA I VILÀ
3,Locals buits en venda i lloguer,0,Grup no definit,30,Locals buits en venda i lloguer,SN,41.372806243,2.173863351,"361009, 8-10, LOC 10",VILA I VILÀ
3,Locals buits en venda i lloguer,0,Grup no definit,30,Locals buits en venda i lloguer,SN,41.374558359,2.17342481,"198804, 33-35, LOC 10",AV PARAL·LEL
3,Locals buits en venda i lloguer,0,Grup no definit,30,Locals buits en venda i lloguer,SN,41.373996801,2.167491764,"130006, 9-9, LOC 10",FONTRODONA
1,Locals buits en venda,0,Grup no definit,10,Locals buits en venda,SN,41.37417493,2.160770148,"086301, 16-16, LOC 10",CONCÒRDIA
3,Locals buits en venda i lloguer,0,Grup no definit,30,Locals buits en venda i lloguer,SN,41.373113194,2.169087678,"175809, 13-13, LOC 10",LAFONT
3,Locals buits en venda i lloguer,0,Grup no definit,30,Locals buits en venda i lloguer,SN,41.373408067,2.165384889,"043400, 16-16, LOC 20",BLAI
1,Locals buits en venda,0,Grup no definit,10,Locals buits en venda,SN,41.373696899,2.156565785,"316900, 10-10, LOC 10",PL SANTA MADRONA
1,Locals buits en venda,0,Grup no definit,10,Locals buits en venda,SN,41.372984376,2.170239687,"257700, 26-26, LOC 40",PIQUER
3,Locals buits en venda i lloguer,0,Grup no definit,30,Locals buits en venda i lloguer,SN,41.372837442,2.1604684,"189202, 62-62, LOC 40",MAGALHAES
2,Locals buits en lloguer,0,Grup no definit,20,Locals buits en lloguer,SN,41.373496629,2.158506364,"043706, 2-2, LOC 20",BÒBILA
3,Locals buits en venda i lloguer,0,Grup no definit,30,Locals buits en venda i lloguer,SN,41.374755607,2.170211524,"198804, 57-61, LOC 40",AV PARAL·LEL
3,Locals buits en venda i lloguer,0,Grup no definit,30,Locals buits en venda i lloguer,SN,41.373642555,2.168010771,"257700, 48-48, LOC 10",PIQUER
3,Locals buits en venda i lloguer,0,Grup no definit,30,Locals buits en venda i lloguer,SN,41.374688181,2.163865417,"195500, 2-4, LOC 20",MARGARIT
1,Locals buits en venda,0,Grup no definit,10,Locals buits en venda,SN,41.373742187,2.16299504,"043207, 25-25, LOC 10",BLASCO DE GARAY
3,Locals buits en venda i lloguer,0,Grup no definit,30,Locals buits en venda i lloguer,SN,41.371377142,2.159513533,"118805, 62-62, LOC 20",PG EXPOSICIÓ
3,Locals buits en venda i lloguer,0,Grup no definit,30,Locals buits en venda i lloguer,SN,41.371920607,2.168922722,"043502, 3-5, LOC 10",BLESA
3,Locals buits en venda i lloguer,0,Grup no definit,30,Locals buits en venda i lloguer,SN,41.37342115,2.161487639,"094707, 24-24, LOC 10",CREU DELS MOLERS
3,Locals buits en venda i lloguer,0,Grup no definit,30,Locals buits en venda i lloguer,SN,41.37240167,2.1637474,"330504, 46-46, LOC 10",TAPIOLES
2,Locals buits en lloguer,0,Grup no definit,20,Locals buits en lloguer,SN,41.374161848,2.163838595,"195500, 13-13, LOC 10",MARGARIT
3,Locals buits en venda i lloguer,0,Grup no definit,30,Locals buits en venda i lloguer,SN,41.372638175,2.164558768,"261004, 54-54, LOC 20",POETA CABANYES
3,Locals buits en venda i lloguer,0,Grup no definit,30,Locals buits en venda i lloguer,SN,41.373383913,2.166591883,"288408, 30-30, LOC 20",ROSER
3,Locals buits en venda i lloguer,0,Grup no definit,30,Locals buits en venda i lloguer,SN,41.374320855,2.162653059,"043400, 55-55, LOC 10",BLAI
3,Locals buits en venda i lloguer,0,Grup no definit,30,Locals buits en venda i lloguer,SN,41.372456016,2.165565938,"108007, 6-6, LOC 10",ELKANO
3,Locals buits en venda i lloguer,0,Grup no definit,30,Locals buits en venda i lloguer,SN,41.373704951,2.157064676,"234500, 44-44, LOC 40",OLIVERA
3,Locals buits en venda i lloguer,0,Grup no definit,30,Locals buits en venda i lloguer,SN,41.372564707,2.172146738,"241404, 29-31, LOC 10",PALAUDÀRIES
3,Locals buits en venda i lloguer,0,Grup no definit,30,Locals buits en venda i lloguer,SN,41.372761962,2.167605758,"086902, 146-146, LOC 10",NOU DE LA RAMBLA
3,Locals buits en venda i lloguer,0,Grup no definit,30,Locals buits en venda i lloguer,SN,41.372055466,2.160994112,"094707, 66-66, LOC 20",CREU DELS MOLERS
3,Locals buits en venda i lloguer,0,Grup no definit,30,Locals buits en venda i lloguer,SN,41.373756276,2.161765248,"094707, 25-25, LOC 20",CREU DELS MOLERS
3,Locals buits en venda i lloguer,0,Grup no definit,30,Locals buits en venda i lloguer,SN,41.373097092,2.167947739,"086902, 138-140, LOC 20",NOU DE LA RAMBLA
3,Locals buits en venda i lloguer,0,Grup no definit,30,Locals buits en venda i lloguer,SN,41.37253049,2.156796455,"149503, 21-23, LOC 20",GRASES
3,Locals buits en venda i lloguer,0,Grup no definit,30,Locals buits en venda i lloguer,SN,41.37417493,2.156492025,"268309, 8-10, LOC 20",PTGE PRUNERA
3,Locals buits en venda i lloguer,0,Grup no definit,30,Locals buits en venda i lloguer,SN,41.373933399,2.155968994,"129459, 19-19, LOC 10",FONT HONRADA
3,Locals buits en venda i lloguer,0,Grup no definit,30,Locals buits en venda i lloguer,SN,41.37386094,2.158171088,"281806, 15-15, LOC 10",RICART
3,Locals buits en venda i lloguer,0,Grup no definit,30,Locals buits en venda i lloguer,SN,41.372986388,2.169740796,"257700, 25B-25B, LOC 50",PIQUER
3,Locals buits en venda i lloguer,0,Grup no definit,30,Locals buits en venda i lloguer,SN,41.373360766,2.157794237,"281806, 28-28, LOC 10",RICART
3,Locals buits en venda i lloguer,0,Grup no definit,30,Locals buits en venda i lloguer,SN,41.374656983,2.157342285,"353306, 2B-2B, LOC 20",VALLHONRAT
3,Locals buits en venda i lloguer,0,Grup no definit,30,Locals buits en venda i lloguer,SN,41.373196725,2.158582807,"043706, 11-11, LOC 10",BÒBILA
3,Locals buits en venda i lloguer,0,Grup no definit,30,Locals buits en venda i lloguer,SN,41.374037057,2.161716968,"094707, 12-12, LOC 20",CREU DELS MOLERS
3,Locals buits en venda i lloguer,0,Grup no definit,30,Locals buits en venda i lloguer,SN,41.373652619,2.154906839,"178400, 11-11, LOC 20",LLEIDA
3,Locals buits en venda i lloguer,0,Grup no definit,30,Locals buits en venda i lloguer,SN,41.373639536,2.167507857,"257700, 59-61, LOC 10",PIQUER
3,Locals buits en venda i lloguer,0,Grup no definit,30,Locals buits en venda i lloguer,SN,41.373483546,2.169082314,"175809, 12-12, LOC 10",LAFONT
3,Locals buits en venda i lloguer,0,Grup no definit,30,Locals buits en venda i lloguer,SN,41.372416766,2.169566453,"052900, 44-44, LOC 10",CABANES
2,Locals buits en lloguer,0,Grup no definit,20,Locals buits en lloguer,SN,41.374775735,2.168965638,"198804, 65-65, LOC 20",AV PARAL·LEL
3,Locals buits en venda i lloguer,0,Grup no definit,30,Locals buits en venda i lloguer,SN,41.374793849,2.162154168,"094707, 1-3, LOC 10",CREU DELS MOLERS
3,Locals buits en venda i lloguer,0,Grup no definit,30,Locals buits en venda i lloguer,SN,41.374601633,2.155385613,"329902, 85-87, LOC 10",TAMARIT
3,Locals buits en venda i lloguer,0,Grup no definit,30,Locals buits en venda i lloguer,SN,41.374428537,2.154488415,"178400, 5-5, LOC 10",LLEIDA
1,Locals buits en venda,0,Grup no definit,10,Locals buits en venda,SN,41.37366067,2.155195177,"234500, 76-76, LOC 20",OLIVERA
2,Locals buits en lloguer,0,Grup no definit,20,Locals buits en lloguer,SN,41.373260127,2.155117393,"178400, 15-15, LOC 20",LLEIDA
3,Locals buits en venda i lloguer,0,Grup no definit,30,Locals buits en venda i lloguer,SN,41.373767346,2.161216736,"108007, 53-53, LOC 20",ELKANO
1,Locals buits en venda,0,Grup no definit,10,Locals buits en venda,SN,41.37245199,2.159190327,"086301, 56-56, LOC 10",CONCÒRDIA
3,Locals buits en venda i lloguer,0,Grup no definit,30,Locals buits en venda i lloguer,SN,41.372916947,2.165681273,"294207, 39-39, LOC 10",SALVÀ
3,Locals buits en venda i lloguer,0,Grup no definit,30,Locals buits en venda i lloguer,SN,41.372579803,2.165450603,"294207, 53-53, LOC 10",SALVÀ
3,Locals buits en venda i lloguer,0,Grup no definit,30,Locals buits en venda i lloguer,SN,41.371544208,2.156113833,"281806, 63-63, LOC 20",RICART
3,Locals buits en venda i lloguer,0,Grup no definit,30,Locals buits en venda i lloguer,SN,41.372771019,2.163180113,"195500, 46-46, LOC 10",MARGARIT
3,Locals buits en venda i lloguer,0,Grup no definit,30,Locals buits en venda i lloguer,SN,41.373545942,2.155358791,"234500, 51-51, LOC 10",OLIVERA
3,Locals buits en venda i lloguer,0,Grup no definit,30,Locals buits en venda i lloguer,SN,41.373146405,2.163467109,"195500, 31-31, LOC 20",MARGARIT
3,Locals buits en venda i lloguer,0,Grup no definit,30,Locals buits en venda i lloguer,SN,41.371585471,2.159301639,"311805, 5-5, LOC 10",SANCHO MARRACO
3,Locals buits en venda i lloguer,0,Grup no definit,30,Locals buits en venda i lloguer,SN,41.372871659,2.155407071,"178400, 25-25, LOC 20",LLEIDA
3,Locals buits en venda i lloguer,0,Grup no definit,30,Locals buits en venda i lloguer,SN,41.371976966,2.169339806,"052900, 54-54, LOC 10",CABANES
3,Locals buits en venda i lloguer,0,Grup no definit,30,Locals buits en venda i lloguer,SN,41.371687119,2.165238708,"189202, 15-15, LOC 10",MAGALHAES
2,Locals buits en lloguer,0,Grup no definit,20,Locals buits en lloguer,SN,41.373426182,2.159744203,"234500, 6-6, LOC 10",OLIVERA
3,Locals buits en venda i lloguer,0,Grup no definit,30,Locals buits en venda i lloguer,SN,41.372379529,2.168122083,"043502, 20-22, LOC 10",BLESA
3,Locals buits en venda i lloguer,0,Grup no definit,30,Locals buits en venda i lloguer,SN,41.373666708,2.155424505,"234500, 70-70, LOC 10",OLIVERA
3,Locals buits en venda i lloguer,0,Grup no definit,30,Locals buits en venda i lloguer,SN,41.372781083,2.155860364,"129459, 36-36, LOC 10",FONT HONRADA
3,Locals buits en venda i lloguer,0,Grup no definit,30,Locals buits en venda i lloguer,SN,41.372529483,2.166650891,"130006, 31-31, LOC 10",FONTRODONA
3,Locals buits en venda i lloguer,0,Grup no definit,30,Locals buits en venda i lloguer,SN,41.372485201,2.168576717,"175809, 30-32, LOC 10",LAFONT
3,Locals buits en venda i lloguer,0,Grup no definit,30,Locals buits en venda i lloguer,SN,41.374151784,2.169329077,"361009, 54-62, LOC 30",VILA I VILÀ
3,Locals buits en venda i lloguer,0,Grup no definit,30,Locals buits en venda i lloguer,SN,41.372755923,2.160121053,"189202, 75-79, LOC 20",MAGALHAES
3,Locals buits en venda i lloguer,0,Grup no definit,30,Locals buits en venda i lloguer,SN,41.370907142,2.162497491,"195500, 84-86, LOC 10",MARGARIT
3,Locals buits en venda i lloguer,0,Grup no definit,30,Locals buits en venda i lloguer,SN,41.374227262,2.169059515,"361009, 64-66, LOC 20",VILA I VILÀ
3,Locals buits en venda i lloguer,0,Grup no definit,30,Locals buits en venda i lloguer,SN,41.3744859,2.155242115,"329902, 83-83, LOC 10",TAMARIT
3,Locals buits en venda i lloguer,0,Grup no definit,30,Locals buits en venda i lloguer,SN,41.37230103,2.160110325,"133605, 6-8, LOC 10",FRANÇA XICA
3,Locals buits en venda i lloguer,0,Grup no definit,30,Locals buits en venda i lloguer,SN,41.37250533,2.160440236,"273400, 34-36, LOC 20",RADAS
3,Locals buits en venda i lloguer,0,Grup no definit,30,Locals buits en venda i lloguer,SN,41.37393038,2.15489611,"329902, 70-70, LOC 10",TAMARIT
3,Locals buits en venda i lloguer,0,Grup no definit,30,Locals buits en venda i lloguer,SN,41.372089684,2.160829157,"017105, 22-24, LOC 10",ANNÍBAL
3,Locals buits en venda i lloguer,0,Grup no definit,30,Locals buits en venda i lloguer,SN,41.372853544,2.170931697,"204204, 11-11, LOC 30",MATA
1,Locals buits en venda,0,Grup no definit,10,Locals buits en venda,SN,41.371789773,2.158431262,"086301, 59-59, LOC 10",CONCÒRDIA
3,Locals buits en venda i lloguer,0,Grup no definit,30,Locals buits en venda i lloguer,SN,41.372631129,2.156634182,"149503, 14-18, LOC 10",GRASES
3,Locals buits en venda i lloguer,0,Grup no definit,30,Locals buits en venda i lloguer,SN,41.372953177,2.165704072,"294207, 37-37, LOC 20",SALVÀ
3,Locals buits en venda i lloguer,0,Grup no definit,30,Locals buits en venda i lloguer,SN,41.37441948,2.168409079,"361009, 78-78, LOC 20",VILA I VILÀ
3,Locals buits en venda i lloguer,0,Grup no definit,30,Locals buits en venda i lloguer,SN,41.374492945,2.167466283,"361009, 97-97, LOC 20",VILA I VILÀ
3,Locals buits en venda i lloguer,0,Grup no definit,30,Locals buits en venda i lloguer,FRUITES I VERDURES,41.372724725,2.160260528,"189202, 75-79, LOC 10",MAGALHAES
3,Locals buits en venda i lloguer,0,Grup no definit,30,Locals buits en venda i lloguer,SN,41.372288953,2.163004428,"195500, 58-58, LOC 20",MARGARIT
3,Locals buits en venda i lloguer,0,Grup no definit,30,Locals buits en venda i lloguer,SN,41.373974661,2.16085732,"086301, 1-1, LOC 10",CONCÒRDIA
3,Locals buits en venda i lloguer,0,Grup no definit,30,Locals buits en venda i lloguer,SN,41.373133322,2.155999839,"129459, 31-31, LOC 20",FONT HONRADA
2,Locals buits en lloguer,0,Grup no definit,20,Locals buits en lloguer,SN,41.374399352,2.165698707,"261004, 10-10, LOC 40",POETA CABANYES
2,Locals buits en lloguer,0,Grup no definit,20,Locals buits en lloguer,SN,41.374571442,2.16191411,"094707, 2-2, LOC 20",CREU DELS MOLERS
3,Locals buits en venda i lloguer,0,Grup no definit,30,Locals buits en venda i lloguer,SN,41.373179616,2.166971415,"130006, 34-34, LOC 10",FONTRODONA
2,Serveis,16,Altres,1600102,Activitats emmagatzematge,SN,41.373168546,2.16732949,"158606, 8-8, LOC 10",HORTES
1,Comerç al detall,1,Quotidià alimentari,1003000,Fruites i verdures,SN,41.373056836,2.160636038,"273400, 20-20, LOC 30",RADAS
2,Serveis,10,Equipaments culturals i recreatius,1111111,Equipaments culturals i recreatius,FOSSAT DE SANTA EULALIA,41.363807415,2.164607048,"143201, 2-6, LOC 20",AV CASTELL
3,Altres,17,Altres,1700320,Altres equipaments esportius,CAMP DE RUGBI DE LA FOIXARDA,41.365980493,2.146131992,"700795, 20-26, LOC 10",CAMÍ FOIXARDA
1,Comerç al detall,1,Quotidià alimentari,1006000,"Pa, pastisseria i làctics",FORN DE PA GRANIER,41.374797875,2.161220759,"198804, 115-115, LOC 10",AV PARAL·LEL
2,Serveis,14,"Restaurants, bars i hotels (Inclòs hostals, pensions i fondes)",1400001,Bars   / CIBERCAFÈ,BAR LA TASQUETA DE BLAI,41.37329837,2.165336609,"043400, 17-17, LOC 10",BLAI
2,Serveis,14,"Restaurants, bars i hotels (Inclòs hostals, pensions i fondes)",1400003,Serveis de menjar take away MENJAR RÀPID,LAS MUNS,41.374020955,2.163794339,"043400, 36-36, LOC 10",BLAI
2,Serveis,13,Reparacions (Electrodomèstics i automòbils),1300000,Reparacions (Electrodomèstics i automòbils),TALLERS ROSER REPARACIO GENERAL DE AUTOMOVILES,41.371406328,2.165500224,"288408, 95-95, LOC 10",ROSER
2,Serveis,14,"Restaurants, bars i hotels (Inclòs hostals, pensions i fondes)",1400002,Restaurants,CASA AXIN BAR RESTAURANT,41.37296928,2.162699997,"043207, 47-47, LOC 10",BLASCO DE GARAY
2,Serveis,16,Altres,1600400,Serveis a les empreses i oficines,SN,41.372450984,2.169781029,"052900, 35-37, LOC 10",CABANES
2,Serveis,16,Altres,1600102,Activitats emmagatzematge,POBLE SEC PEIX,41.372489227,2.17074126,"204204, 13-17, LOC 30",MATA
2,Serveis,16,Altres,1600102,Activitats emmagatzematge,PETIT MON GOURMET,41.372543573,2.171240151,"257700, 3-7, LOC 10",PIQUER
1,Comerç al detall,1,Quotidià alimentari,1000020,Autoservei / Supermercat,CONDIS,41.373194712,2.169518173,"257700, 32-36, LOC 10",PIQUER
2,Serveis,14,"Restaurants, bars i hotels (Inclòs hostals, pensions i fondes)",1400100,serveis d'allotjament,HOTEL CONCORDIA BARCELONA,41.374796868,2.16089353,"198804, 115B-115B, LOC 20",AV PARAL·LEL
1,Comerç al detall,1,Quotidià alimentari,1000020,Autoservei / Supermercat,SUPERMERCAT,41.373869998,2.17377618,"005401, 14-14, LOC 20",ALBAREDA
2,Serveis,14,"Restaurants, bars i hotels (Inclòs hostals, pensions i fondes)",1400002,Restaurants,BAR RESTAURANT BRISAS DO SIL,41.3742806,2.159378082,"226309, 3-3, LOC 10",PL LAS NAVAS
2,Serveis,16,Altres,1600400,Serveis a les empreses i oficines,WE LANADA,41.37169517,2.161010206,"094707, 81-81, LOC 10",CREU DELS MOLERS
2,Serveis,16,Altres,1600400,Serveis a les empreses i oficines,BCN PROPS OFICINA,41.37249124,2.172837406,"270800, 48-50, LOC 10",PUIG I XORIGUER
2,Serveis,14,"Restaurants, bars i hotels (Inclòs hostals, pensions i fondes)",1400001,Bars   / CIBERCAFÈ,CARMESÍ CAFETERIA,41.373775398,2.164436728,"043400, 28-32, LOC 40",BLAI
2,Serveis,10,Equipaments culturals i recreatius,1111111,Equipaments culturals i recreatius,ESTADI OLIMPIC LLUIS COMPANYS,41.365864745,2.155661881,"116402, 50-56, LOC 10",AV ESTADI
2,Serveis,14,"Restaurants, bars i hotels (Inclòs hostals, pensions i fondes)",1400001,Bars   / CIBERCAFÈ,BAR TAPS,41.372884742,2.155676633,"230703, 53-53, LOC 10",MARE DE DÉU DEL REMEI
2,Serveis,14,"Restaurants, bars i hotels (Inclòs hostals, pensions i fondes)",1400002,Restaurants,RESTAURANT LA FOIXARDA,41.367520425,2.148036361,"700795, 15X-17X, LOC 10",CAMÍ FOIXARDA
2,Serveis,16,Altres,1600102,Activitats emmagatzematge,GRUP LD FACILITY SERVICES,41.373915285,2.161670029,"094707, 14-14, LOC 20",CREU DELS MOLERS
2,Serveis,15,Sanitat i assistència,1500000,Sanitat i assistència,RIBAS MEDICINA SL ARTICLES I EQUIPS MEDICS,41.374568423,2.15593949,"129459, 3-3, LOC 20",FONT HONRADA
2,Serveis,14,"Restaurants, bars i hotels (Inclòs hostals, pensions i fondes)",1400001,Bars   / CIBERCAFÈ,CELLER CAL MARINO,41.372446958,2.163056731,"195500, 54-54, LOC 10",MARGARIT
2,Serveis,14,"Restaurants, bars i hotels (Inclòs hostals, pensions i fondes)",1400001,Bars   / CIBERCAFÈ,4CUBAR,41.374618741,2.161885947,"043400, 63-63, LOC 30",BLAI
2,Serveis,8,Activitats immobiliàries,8000000,Activitats immobiliàries,TECNOCASA,41.373961578,2.16360122,"043400, 41-41, LOC 10",BLAI
1,Comerç al detall,2,Quotidià no alimentari,2002000,Farmàcies PARAFARMÀCIA,FARMACIA ECOCEUTICS,41.373705957,2.174283117,"005401, 6-8, LOC 20",ALBAREDA
1,Comerç al detall,1,Quotidià alimentari,1000030,Altres,LLEGUMS CUITS,41.373666708,2.155483514,"234500, 70-70, LOC 20",OLIVERA
2,Serveis,14,"Restaurants, bars i hotels (Inclòs hostals, pensions i fondes)",1400100,serveis d'allotjament,INTERCONTINENTAL BARCELONA,41.372763975,2.154914886,"178400, 34-36, LOC 10",LLEIDA
1,Comerç al detall,3,Parament de la llar,3003000,Mobles i articles fusta i metall,MOBLES MOLINO,41.373710989,2.166970074,"288408, 19-19, LOC 20",ROSER
2,Serveis,14,"Restaurants, bars i hotels (Inclòs hostals, pensions i fondes)",1400001,Bars   / CIBERCAFÈ,KSARA,41.372865621,2.165639699,"294207, 41-41, LOC 10",SALVÀ
2,Serveis,14,"Restaurants, bars i hotels (Inclòs hostals, pensions i fondes)",1400100,serveis d'allotjament,MAMBO TANGO HOSTEL BARCELONA,41.374038063,2.165618241,"261004, 23-23, LOC 20",POETA CABANYES
2,Serveis,14,"Restaurants, bars i hotels (Inclòs hostals, pensions i fondes)",1400002,Restaurants,MATSURIYA,41.372679437,2.167330831,"043502, 32-32, LOC 10",BLESA
3,Altres,17,Altres,1700600,Activitats de la construcció,JARQUE ELECTRICITAT AIGUA GAS CLIMATITZACIO,41.373093066,2.158251554,"043706, 12-12, LOC 20",BÒBILA
2,Serveis,14,"Restaurants, bars i hotels (Inclòs hostals, pensions i fondes)",1400001,Bars   / CIBERCAFÈ,CENTRAL PERÚ,41.373169552,2.165671885,"043400, 11-11, LOC 20",BLAI
2,Serveis,16,Altres,1600600,Perruqueries,VAKERO STILO,41.373683817,2.161930203,"108007, 62-62, LOC 20",ELKANO
3,Altres,17,Altres,1700700,Arts gràfiques,LA NAVE 13,41.374148765,2.16650337,"294207, 13-13, LOC 10",SALVÀ
2,Serveis,11,Finances i assegurances,1100000,Finances i assegurances,BANC SABADELL,41.374799888,2.159972191,"198804, 123-125, LOC 10",AV PARAL·LEL
1,Comerç al detall,7,Altres,7004020,Basars,PROSPERO HOME,41.3748019,2.159761637,"198804, 123-125, LOC 20",AV PARAL·LEL
2,Serveis,9,Ensenyament,9000000,Ensenyament,ALKIMIA,41.372689501,2.165351361,"294207, 50-50, LOC 10",SALVÀ
2,Serveis,16,Altres,1600000,Pàrquings i garatges,PARKING PUBLICO PARAL·LEL,41.373115207,2.160657495,"273400, 20-20, LOC 40",RADAS
2,Serveis,14,"Restaurants, bars i hotels (Inclòs hostals, pensions i fondes)",1400100,serveis d'allotjament,AG APARTMENTS & CONTEMPORARY PHOTOGRAPHY GALLERY,41.37452213,2.163294107,"043207, 7-7, LOC 10",BLASCO DE GARAY
2,Serveis,10,Equipaments culturals i recreatius,1111111,Equipaments culturals i recreatius,STANSA,41.373187667,2.160846591,"273400, 41-41, LOC 10",RADAS
2,Serveis,16,Altres,1600700,Centres d'estètica,LA STETICISTA,41.372535522,2.155518383,"178400, 31-31, LOC 20",LLEIDA
3,Altres,17,Altres,1700500,Activitats industrials,SN,41.371849152,2.162839472,"195500, 66-66, LOC 10",MARGARIT
2,Serveis,10,Equipaments culturals i recreatius,1111111,Equipaments culturals i recreatius,ESPAI PILUSO,41.372023261,2.165069729,"294207, 68-68, LOC 10",SALVÀ
2,Serveis,16,Altres,1600102,Activitats emmagatzematge,WIFI SAFE,41.371394251,2.161275744,"118805, 81-81, LOC 20",PG EXPOSICIÓ
3,Altres,17,Altres,1700700,Arts gràfiques,SIGNART ROTULACION,41.373592236,2.159378082,"234500, 16-16, LOC 10",OLIVERA
1,Comerç al detall,3,Parament de la llar,3004000,Parament ferreteria,OPTIMUS FERRETERIA BLESA,41.373180622,2.166640162,"288408, 31-33, LOC 20",ROSER
2,Serveis,14,"Restaurants, bars i hotels (Inclòs hostals, pensions i fondes)",1400001,Bars   / CIBERCAFÈ,BUS STOP,41.372926005,2.158495635,"043706, 13-13, LOC 20",BÒBILA
2,Serveis,14,"Restaurants, bars i hotels (Inclòs hostals, pensions i fondes)",1400001,Bars   / CIBERCAFÈ,AZOKA,41.3725164,2.16732949,"043502, 39-39, LOC 10",BLESA
3,Altres,17,Altres,1700600,Activitats de la construcció,NÚRIA CASTERÀ CONSTRUCCIONS METAL.LIQUES,41.370880975,2.159217149,"118805, 113-113, LOC 10",PG EXPOSICIÓ
1,Comerç al detall /Engròs,7,Altres,7005000,Altres,PETARDOS CM,41.371607612,2.161160409,"118805, 48-48, LOC 10",PG EXPOSICIÓ
1,Comerç al detall /Engròs,7,Altres,7005000,Altres,PETAR2M VENDA DE PETARDS,41.373722059,2.155812085,"234500, 62-62, LOC 10",OLIVERA
2,Serveis,14,"Restaurants, bars i hotels (Inclòs hostals, pensions i fondes)",1400002,Restaurants,IL GOLFO DI NAPOLI,41.372277882,2.155373544,"178400, 38-38, LOC 10",LLEIDA
1,Comerç al detall,2,Quotidià no alimentari,2003000,"Herbolaris, dietètica i NUTRICIÓ",TERRA DE SALUT DIETETICA,41.372683463,2.166927159,"043502, 45-45, LOC 10",BLESA
2,Serveis,16,Altres,1600102,Activitats emmagatzematge,SN,41.372810269,2.159201056,"061107, 18-18, LOC 10",PEDRERES
2,Serveis,9,Ensenyament,9000000,Ensenyament,BE SIDE SCHOOL,41.372675411,2.158962339,"061107, 11-11, LOC 10",PEDRERES
2,Serveis,16,Altres,1600400,Serveis a les empreses i oficines,LA BOTANICA,41.372537534,2.169823945,"052900, 33-33, LOC 10",CABANES
2,Serveis,16,Altres,1600600,Perruqueries,STYLE N 1,41.374209147,2.163860053,"195500, 11-11, LOC 10",MARGARIT
2,Serveis,14,"Restaurants, bars i hotels (Inclòs hostals, pensions i fondes)",1400003,Serveis de menjar take away MENJAR RÀPID,SOL DE ISTAMBUL,41.374804919,2.157208174,"198804, 153-153, LOC 10",AV PARAL·LEL
1,Comerç al detall,1,Quotidià alimentari,1000020,Autoservei / Supermercat,SUPER ALIMENTACIÓ,41.374805926,2.157139778,"198804, 153-153, LOC 20",AV PARAL·LEL
2,Serveis,14,"Restaurants, bars i hotels (Inclòs hostals, pensions i fondes)",1400003,Serveis de menjar take away MENJAR RÀPID,KFC,41.374785798,2.166422904,"198804, 83-83, LOC 10",AV PARAL·LEL
2,Serveis,14,"Restaurants, bars i hotels (Inclòs hostals, pensions i fondes)",1400001,Bars   / CIBERCAFÈ,EL CARRO GROS,41.372220517,2.162661105,"043309, 14-14, LOC 20",PL SORTIDOR
2,Serveis,10,Equipaments culturals i recreatius,1111111,Equipaments culturals i recreatius,STUDIO M41,41.372200389,2.162785828,"189202, 41-41, LOC 10",MAGALHAES
2,Serveis,14,"Restaurants, bars i hotels (Inclòs hostals, pensions i fondes)",1400001,Bars   / CIBERCAFÈ,QUIMET & QUIMET,41.373945476,2.165564597,"261004, 25-25, LOC 10",POETA CABANYES
2,Serveis,9,Ensenyament,9000000,Ensenyament,ESCOLA DE DONES I NENS FAIZAN E SAHABIYAT,41.374260472,2.166579813,"294207, 9-9, LOC 10",SALVÀ
2,Serveis,16,Altres,1600102,Activitats emmagatzematge,SN,41.371609625,2.166412175,"086902, 176-176, LOC 20",NOU DE LA RAMBLA
1,Comerç al detall,5,Oci i cultura,5000000,Informàtica,HAIDER MOBILS,41.372881723,2.156054825,"230703, 49-49, LOC 10",MARE DE DÉU DEL REMEI
3,Altres,17,Altres,1700310,Gimnàs /fitnes,BEYOND FORGET YOUR LIMITS,41.371614656,2.166158706,"189202, 2-4, LOC 10",MAGALHAES
1,Comerç al detall,7,Altres,7003020,Fotografia,CONCHITA,41.373590223,2.162937373,"043207, 31-31, LOC 10",BLASCO DE GARAY
2,Serveis,9,Ensenyament,9000000,Ensenyament,ESPAI MARABAL,41.373343658,2.158653885,"043706, 7-9, LOC 10",BÒBILA
1,Comerç al detall,1,Quotidià alimentari,1000020,Autoservei / Supermercat,SUPERMERCAT 24h,41.374380231,2.174021602,"270800, 1-5, LOC 30",PUIG I XORIGUER
1,Comerç al detall,1,Quotidià alimentari,1003000,Fruites i verdures,LA MAGRANA FRUITES I VERDURES,41.3737442,2.169982195,"361009, 59-61, LOC 10",VILA I VILÀ
2,Serveis,16,Altres,1600600,Perruqueries,BARBER SHOP HERCULANO,41.374595595,2.166806459,"294207, 1-1, LOC 30",SALVÀ
2,Serveis,16,Altres,1600800,Tintoreries,HUGUET TINTORERIA BUGADERIA,41.373012555,2.168115377,"086902, 143-143, LOC 10",NOU DE LA RAMBLA
3,Altres,17,Altres,1700200,Associacions,NOOK,41.372946133,2.168049663,"086902, 143-143, LOC 20",NOU DE LA RAMBLA
2,Serveis,10,Equipaments culturals i recreatius,1111111,Equipaments culturals i recreatius,QUADRERIA ALAS,41.373357747,2.160208225,"086301, 17-19, LOC 50",CONCÒRDIA
2,Serveis,11,Finances i assegurances,1100000,Finances i assegurances,BAN CARIBE EXPRESS,41.373038721,2.166011184,"043400, 9-9, LOC 10",BLAI
1,Comerç al detall,2,Quotidià no alimentari,1008000,Tabac i articles fumadors,TABACS EXP. 19,41.373689855,2.170186043,"361009, 57-57, LOC 20",VILA I VILÀ
3,Altres,17,Altres,1700500,Activitats industrials,KAMILA MARIA BCN,41.373437252,2.157823741,"281806, 26-26, LOC 20",RICART
1,Comerç al detall,1,Quotidià alimentari,1000020,Autoservei / Supermercat,CARREFOUR EXPRESS,41.373545942,2.165025473,"043400, 20-20, LOC 10",BLAI
2,Serveis,10,Equipaments culturals i recreatius,1111111,Equipaments culturals i recreatius,ESPAI LA BARRANCO COMPANYIA DE TEATRE,41.371914568,2.167387158,"218606, 74-74, LOC 30",PG MONTJUÏC
2,Serveis,14,"Restaurants, bars i hotels (Inclòs hostals, pensions i fondes)",1400002,Restaurants,PINCHO.J,41.373701932,2.164616436,"043400, 26-26, LOC 20",BLAI
2,Serveis,14,"Restaurants, bars i hotels (Inclòs hostals, pensions i fondes)",1400003,Serveis de menjar take away MENJAR RÀPID,DIONISOS,41.373846851,2.168981731,"086902, 121-121, LOC 10",NOU DE LA RAMBLA
2,Serveis,13,Reparacions (Electrodomèstics i automòbils),1300000,Reparacions (Electrodomèstics i automòbils),ZAIN MÒBILS,41.373778417,2.168914676,"086902, 121-121, LOC 20",NOU DE LA RAMBLA
1,Comerç al detall,7,Altres,7004020,Basars,CASA I CUINA,41.373119232,2.168230712,"086902, 137-137, LOC 10",NOU DE LA RAMBLA
2,Serveis,16,Altres,1600600,Perruqueries,ELION PERRUQUERIA D'HOMES,41.374124612,2.160114348,"108007, 80-80, LOC 20",ELKANO
1,Comerç al detall,1,Quotidià alimentari,1006000,"Pa, pastisseria i làctics",TURÍN LABORATORIO DI GELATO,41.374147758,2.16001913,"108007, 80-80, LOC 10",ELKANO
2,Serveis,14,"Restaurants, bars i hotels (Inclòs hostals, pensions i fondes)",1400003,Serveis de menjar take away MENJAR RÀPID,PANS & COMPANY,41.374775735,2.169129252,"198804, 65-65, LOC 10",AV PARAL·LEL
1,Comerç al detall,1,Quotidià alimentari,1000020,Autoservei / Supermercat,SUPERMERCAT SINGH ALIMENTACIÓ,41.373788481,2.168673277,"086902, 126-126, LOC 10",NOU DE LA RAMBLA
2,Serveis,8,Activitats immobiliàries,8000000,Activitats immobiliàries,OH! PISOS,41.372799199,2.166675031,"043400, 1-1, LOC 10",BLAI
2,Serveis,9,Ensenyament,9000000,Ensenyament,IES CONSELL DE CENT,41.373166533,2.174513787,"068106, 17-25, LOC 20",CARRERA
2,Serveis,14,"Restaurants, bars i hotels (Inclòs hostals, pensions i fondes)",1400001,Bars   / CIBERCAFÈ,LA RAIZ,41.372266812,2.167082727,"086902, 154-154, LOC 10",NOU DE LA RAMBLA
2,Serveis,16,Altres,1611000,Arranjaments,ARREGLOS DE ROPA INDIAN,41.372917953,2.166692466,"043400, 2-2, LOC 10",BLAI
2,Serveis,14,"Restaurants, bars i hotels (Inclòs hostals, pensions i fondes)",1400001,Bars   / CIBERCAFÈ,CASA CATRACHA,41.372890781,2.166785002,"043400, 2-2, LOC 20",BLAI
3,Altres,17,Altres,1700500,Activitats industrials,HD SA GRAUER HERRAN Y DIEZ SA,41.373502667,2.167958468,"257700, 51-51, LOC 10",PIQUER
2,Serveis,16,Altres,1600600,Perruqueries,C&M ESTILISTES,41.374788818,2.162771076,"198804, 103B-103B, LOC 10",AV PARAL·LEL
1,Comerç al detall,1,Quotidià alimentari,1003000,Fruites i verdures,PER PEBROTS FRUITS SL,41.373372843,2.162694633,"043207, 32-32, LOC 10",BLASCO DE GARAY
3,Altres,17,Altres,1700320,Altres equipaments esportius,ESPAI AGO,41.373472476,2.162728161,"043207, 30-32, LOC 20",BLASCO DE GARAY
2,Serveis,14,"Restaurants, bars i hotels (Inclòs hostals, pensions i fondes)",1400100,serveis d'allotjament,HOTEL NUEVO TRIUNFO,41.373163514,2.169958055,"052900, 34-34, LOC 10",CABANES
2,Serveis,15,Sanitat i assistència,1500000,Sanitat i assistència,HOMEONATUR SALUT,41.372593893,2.162384838,"043309, 1-2, LOC 10",PL SORTIDOR
2,Serveis,14,"Restaurants, bars i hotels (Inclòs hostals, pensions i fondes)",1400001,Bars   / CIBERCAFÈ,BODEGA LA TIETA,41.372831403,2.166582495,"043400, 1-1, LOC 20",BLAI
1,Comerç al detall,1,Quotidià alimentari,1000010,Plats preparats (no degustació),BON PROFIT ROSTISSERIA PIZZERIA,41.374281606,2.162753642,"043400, 51-51, LOC 20",BLAI
2,Serveis,16,Altres,1600102,Activitats emmagatzematge,SN,41.372460041,2.163216323,"195500, 39-39, LOC 10",MARGARIT
3,Altres,17,Altres,1700200,Associacions,ASSOCIACIÓ CLUB SOCIAL PRIVAT,41.372626098,2.161353528,"094707, 59-59, LOC 10",CREU DELS MOLERS
1,Comerç al detall,2,Quotidià no alimentari,1008000,Tabac i articles fumadors,TABACS EXP. 189,41.37286864,2.166473866,"043400, 1-1, LOC 30",BLAI
2,Serveis,14,"Restaurants, bars i hotels (Inclòs hostals, pensions i fondes)",1400001,Bars   / CIBERCAFÈ,PEREJIL,41.37458855,2.162311077,"043400, 68-68, LOC 10",BLAI
2,Serveis,14,"Restaurants, bars i hotels (Inclòs hostals, pensions i fondes)",1400001,Bars   / CIBERCAFÈ,"BLAI STOP COCTELS,TAPAS & BRUNCH",41.373118226,2.166134566,"043400, 6-6, LOC 10",BLAI
1,Comerç al detall,1,Quotidià alimentari,1003000,Fruites i verdures,SN,41.373034695,2.166374624,"288408, 36-36, LOC 30",ROSER
1,Comerç al detall,5,Oci i cultura,5003000,"Llibres, diaris i revistes",NITUS REGALS LLIBRERIA,41.373083002,2.166239172,"043400, 6-6, LOC 20",BLAI
2,Serveis,14,"Restaurants, bars i hotels (Inclòs hostals, pensions i fondes)",1400001,Bars   / CIBERCAFÈ,BARKADA,41.374568423,2.162355334,"043400, 68-68, LOC 20",BLAI
3,Altres,17,Altres,1700310,Gimnàs /fitnes,LOTO YOGA STUDIO,41.372517406,2.169622779,"052900, 42-42, LOC 10",CABANES
2,Serveis,14,"Restaurants, bars i hotels (Inclòs hostals, pensions i fondes)",1400002,Restaurants,EL MANJAR DE LAS BRASAS,41.373177603,2.155167013,"178400, 19-19, LOC 10",LLEIDA
2,Serveis,16,Altres,1600600,Perruqueries,PERRUQUERIA CASANOVAS,41.373720046,2.157536745,"234500, 36-38, LOC 20",OLIVERA
2,Serveis,14,"Restaurants, bars i hotels (Inclòs hostals, pensions i fondes)",1400003,Serveis de menjar take away MENJAR RÀPID,WOK HOME,41.374195058,2.162993699,"043400, 49-49, LOC 10",BLAI
1,Comerç al detall,1,Quotidià alimentari,1000020,Autoservei / Supermercat,CONSUM,41.373713002,2.157425433,"234500, 38-38, LOC 10",OLIVERA
2,Serveis,14,"Restaurants, bars i hotels (Inclòs hostals, pensions i fondes)",1400002,Restaurants,PIEL DE GALLINA,41.372088678,2.163308859,"189202, 35-35, LOC 10",MAGALHAES
2,Serveis,16,Altres,1600600,Perruqueries,BELLADONA,41.373689855,2.159175575,"234500, 20-20, LOC 10",OLIVERA
2,Serveis,16,Altres,1600102,Activitats emmagatzematge,SN,41.373509712,2.166074216,"294207, 25-25, LOC 20",SALVÀ
1,Comerç al detall,3,Parament de la llar,3003000,Mobles i articles fusta i metall,MONICA CUSTODIO,41.373454361,2.159687877,"234500, 8-8, LOC 10",OLIVERA
1,Comerç al detall,7,Altres,7004020,Basars,BASAR ORIENT,41.374264498,2.168229371,"361009, 85-85, LOC 10",VILA I VILÀ
1,Comerç al detall,4,Equipament personal,4001000,"Joieria, rellotgeria i bijuteria",ROLDAN,41.373374856,2.16547206,"043400, 16-16, LOC 30",BLAI
1,Comerç al detall,1,Quotidià alimentari,1000020,Autoservei / Supermercat,CAMCUAK,41.374215186,2.167289257,"288408, 7-7, LOC 20",ROSER
2,Serveis,16,Altres,1600400,Serveis a les empreses i oficines,BUGNI I NEUMANN OTO CREATIONS,41.372788128,2.169759572,"052900, 38B-38B, LOC 20",CABANES
2,Serveis,16,Altres,1600900,Veterinaris / Mascotes,CENTRE VETERINARI PISADAS,41.373812634,2.156909108,"353306, 25-25, LOC 10",VALLHONRAT
2,Serveis,14,"Restaurants, bars i hotels (Inclòs hostals, pensions i fondes)",1400002,Restaurants,BAR RESTAURANTE PARADA,41.372322164,2.156843394,"281806, 59-59, LOC 20",RICART
2,Serveis,16,Altres,1600102,Activitats emmagatzematge,SN,41.374777747,2.168134153,"198804, 73-73, LOC 10",AV PARAL·LEL
1,Comerç al detall,4,Equipament personal,4003000,Vestir,HUMANA,41.374781773,2.166149318,"198804, 85-85, LOC 10",AV PARAL·LEL
2,Serveis,14,"Restaurants, bars i hotels (Inclòs hostals, pensions i fondes)",1400001,Bars   / CIBERCAFÈ,TAPAS SOUL,41.37262811,2.162246704,"043309, 3-3, LOC 10",PL SORTIDOR
2,Serveis,9,Ensenyament,9000000,Ensenyament,INSTITUT NACIONAL D'EDUCACIO FISICA DE CATALUNYA,41.365218565,2.147231698,"116402, 12-22, LOC 10",AV ESTADI
2,Serveis,14,"Restaurants, bars i hotels (Inclòs hostals, pensions i fondes)",1400002,Restaurants,VEGANASHI,41.372503317,2.155535817,"178400, 33-33, LOC 10",LLEIDA
3,Altres,17,Altres,1700800,Fabricació tèxtil,TENDALS BARCINO,41.373721053,2.157617211,"234500, 36-36, LOC 30",OLIVERA
1,Comerç al detall,1,Quotidià alimentari,1003000,Fruites i verdures,PER PEBROTS FRUITS SL,41.373721053,2.157692313,"234500, 36-36, LOC 40",OLIVERA
2,Serveis,14,"Restaurants, bars i hotels (Inclòs hostals, pensions i fondes)",1400001,Bars   / CIBERCAFÈ,LA TIZA,41.373702938,2.164277136,"043400, 31-31, LOC 10",BLAI
3,Altres,17,Altres,1700200,Associacions,A.E. ATLÈTIC LA PALMA,41.372075594,2.162611485,"043309, 13-13, LOC 20",PL SORTIDOR
3,Altres,17,Altres,1700700,Arts gràfiques,RÈTOLS,41.372733783,2.166181505,"288408, 44-44, LOC 10",ROSER
3,Altres,17,Altres,1700400,Equipaments religiosos,PARROQUIA DE SANTA MADRONA,41.373021612,2.156005204,"129459, 33-33, LOC 10",FONT HONRADA
1,Comerç al detall,1,Quotidià alimentari,1000020,Autoservei / Supermercat,EXPRESS SUPERMERCAT,41.373244025,2.163501978,"195500, 29-29, LOC 10",MARGARIT
2,Serveis,13,Reparacions (Electrodomèstics i automòbils),1300000,Reparacions (Electrodomèstics i automòbils),FIRST STOP GRACIA PNEUMÀTICS I MANTENIMENT DE L'AUTOMÒBIL,41.374792843,2.162480056,"198804, 109-109, LOC 10",AV PARAL·LEL
1,Comerç al detall,3,Parament de la llar,3002000,Material equipament llar,MOLINO DREAMS MATALASSOS,41.373622427,2.16718331,"130006, 22-22, LOC 10",FONTRODONA
1,Comerç al detall,5,Oci i cultura,5003000,"Llibres, diaris i revistes",NU & CA PAPERERIA,41.374307772,2.167346925,"288408, 5-5, LOC 10",ROSER
2,Serveis,14,"Restaurants, bars i hotels (Inclòs hostals, pensions i fondes)",1400100,serveis d'allotjament,HOTEL BRUMMELL,41.371650888,2.166449726,"086902, 174-174, LOC 10",NOU DE LA RAMBLA
2,Serveis,13,Reparacions (Electrodomèstics i automòbils),1300000,Reparacions (Electrodomèstics i automòbils),EUROTALLER TALLERS FLOMART,41.373670734,2.167908847,"257700, 50-50, LOC 10",PIQUER
2,Serveis,14,"Restaurants, bars i hotels (Inclòs hostals, pensions i fondes)",1400002,Restaurants,IKKI TASCA JAPONESA,41.373070926,2.170096189,"257700, 26-26, LOC 20",PIQUER
2,Serveis,14,"Restaurants, bars i hotels (Inclòs hostals, pensions i fondes)",1400004,Bars especials amb actuació / Bars musicals / Discoteques /PUB,BREW PUB LE SEC,41.372524451,2.163086236,"195500, 52-52, LOC 10",MARGARIT
2,Serveis,14,"Restaurants, bars i hotels (Inclòs hostals, pensions i fondes)",1400002,Restaurants,MALEVO,41.372573765,2.16310367,"195500, 52-52, LOC 20",MARGARIT
2,Serveis,16,Altres,1600600,Perruqueries,PERRUQUERIA DE CABALLEROS,41.374611697,2.166648209,"294207, 2-4, LOC 10",SALVÀ
2,Serveis,16,Altres,1600800,Tintoreries,LAVANDERIA BUGADERIA MOLINO,41.374719378,2.166693807,"198804, 79-79, LOC 30",AV PARAL·LEL
2,Serveis,16,Altres,1600700,Centres d'estètica,SUMMER NAIL,41.374789824,2.163679004,"198804, 97-97, LOC 50",AV PARAL·LEL
2,Serveis,14,"Restaurants, bars i hotels (Inclòs hostals, pensions i fondes)",1400001,Bars   / CIBERCAFÈ,PARALEL STOP COCTELS TAPAS BRUNCH,41.37479083,2.163630724,"198804, 97-97, LOC 60",AV PARAL·LEL
1,Comerç al detall,4,Equipament personal,4001000,"Joieria, rellotgeria i bijuteria",JOIERIA LA FAMA,41.374787811,2.163754106,"198804, 97-97, LOC 40",AV PARAL·LEL
2,Serveis,13,Reparacions (Electrodomèstics i automòbils),1300000,Reparacions (Electrodomèstics i automòbils),SHAJIN TECNICO FONTANERO,41.37432488,2.1583803,"281806, 7-7, LOC 30",RICART
1,Comerç al detall,2,Quotidià no alimentari,2003000,"Herbolaris, dietètica i NUTRICIÓ",OLIVERA DE SALUT,41.374356078,2.158395052,"281806, 7-7, LOC 20",RICART
2,Serveis,9,Ensenyament,9000000,Ensenyament,MASSA,41.372696546,2.168873101,"175809, 19-21, LOC 20",LAFONT
2,Serveis,14,"Restaurants, bars i hotels (Inclòs hostals, pensions i fondes)",1400100,serveis d'allotjament,ONE HOSTEL PARALELO,41.37220844,2.165140808,"294207, 62-62, LOC 10",SALVÀ
2,Serveis,14,"Restaurants, bars i hotels (Inclòs hostals, pensions i fondes)",1400002,Restaurants,RESTAURANT EL SORTIDOR,41.372488221,2.162103206,"043309, 5-5, LOC 20",PL SORTIDOR
3,Altres,17,Altres,1700500,Activitats industrials,SN,41.372499291,2.161946297,"189202, 44-44, LOC 10",MAGALHAES
2,Serveis,14,"Restaurants, bars i hotels (Inclòs hostals, pensions i fondes)",1400001,Bars   / CIBERCAFÈ,GRAN BODEGA SALTO,41.372734789,2.167179286,"043502, 36-36, LOC 20",BLESA
3,Altres,17,Altres,1700600,Activitats de la construcció,INSTAL•LACIONS BASSEDAS,41.373721053,2.156639546,"353306, 30-30, LOC 20",VALLHONRAT
2,Serveis,14,"Restaurants, bars i hotels (Inclòs hostals, pensions i fondes)",1400002,Restaurants,RESTAURANT BAR-CELONA,41.373710989,2.165236026,"261004, 30-30, LOC 10",POETA CABANYES
2,Serveis,13,Reparacions (Electrodomèstics i automòbils),1300000,Reparacions (Electrodomèstics i automòbils),HACAMAN CICLIST,41.373670734,2.166944593,"288408, 21-21, LOC 10",ROSER
1,Comerç al detall,5,Oci i cultura,5003000,"Llibres, diaris i revistes",BIBLIOMUSICINETECA LLIBRERIA,41.374403378,2.168441266,"361009, 76-76, LOC 10",VILA I VILÀ
3,Altres,17,Altres,1700320,Altres equipaments esportius,PISCINA MUNICIPAL MONTJUÏC,41.36936729,2.16481626,"213307, 31-41, LOC 20",AV MIRAMAR
2,Serveis,13,Reparacions (Electrodomèstics i automòbils),1300000,Reparacions (Electrodomèstics i automòbils),MOTO RICART,41.373472476,2.157835811,"281806, 24-24, LOC 10",RICART
3,Altres,17,Altres,1700700,Arts gràfiques,DIGITAL GRAFIC,41.374277581,2.168186456,"361009, 87-87, LOC 10",VILA I VILÀ
3,Altres,17,Altres,1700200,Associacions,ASSOCIACIO BIBLIOMUSICINETECA,41.374388282,2.16849491,"361009, 76-76, LOC 20",VILA I VILÀ
2,Serveis,14,"Restaurants, bars i hotels (Inclòs hostals, pensions i fondes)",1400002,Restaurants,TABERNA NOROESTE,41.372218504,2.160497904,"273400, 67-67, LOC 10",RADAS
1,Comerç al detall,1,Quotidià alimentari,1001000,Begudes,INSTITUT DE LA CERVESA ARTESANA,41.374101465,2.168787271,"361009, 73-73, LOC 60",VILA I VILÀ
1,Comerç al detall,2,Quotidià no alimentari,1008000,Tabac i articles fumadors,L'ESTANC DEL PARAL•LEL,41.374809951,2.155335993,"198804, 173-173, LOC 50",AV PARAL·LEL
3,Altres,17,Altres,1700600,Activitats de la construcció,FEM FAÇANES S.L.,41.373171565,2.16828838,"086902, 135-135, LOC 10",NOU DE LA RAMBLA
3,Altres,17,Altres,1700400,Equipaments religiosos,ESGLESIA EVANGELICA CUERPO DE CRISTO,41.374559365,2.163821161,"195500, 6-6, LOC 10",MARGARIT
2,Serveis,16,Altres,1600700,Centres d'estètica,NAILA MAKEUP STUDIO,41.373732123,2.158203274,"234500, 30-30, LOC 30",OLIVERA
2,Serveis,16,Altres,1600400,Serveis a les empreses i oficines,PUIG GONELL ADVOCADES,41.374322868,2.15501681,"329902, 79-81, LOC 20",TAMARIT
1,Comerç al detall,1,Quotidià alimentari,1000020,Autoservei / Supermercat,DIA,41.37376634,2.166835964,"288408, 18-18, LOC 10",ROSER
2,Serveis,10,Equipaments culturals i recreatius,1111111,Equipaments culturals i recreatius,POBLE ESPANYOL,41.368950617,2.146743536,"198702, 13-27, LOC 10",AV FRANCESC FERRER I GUÀRDIA
2,Serveis,14,"Restaurants, bars i hotels (Inclòs hostals, pensions i fondes)",1400002,Restaurants,L'ANTICA NAPOLI,41.371908529,2.158566713,"086301, 55-55, LOC 10",CONCÒRDIA
3,Altres,17,Altres,1700200,Associacions,FUNDACIO IDEA CODA,41.37272875,2.164025009,"330504, 41-41, LOC 10",TAPIOLES
2,Serveis,14,"Restaurants, bars i hotels (Inclòs hostals, pensions i fondes)",1400001,Bars   / CIBERCAFÈ,SECO,41.372041376,2.167112231,"218606, 74-74, LOC 10",PG MONTJUÏC
3,Altres,17,Altres,1700200,Associacions,CAN BANDARRA CASTELLERS DEL POBLE SEC,41.371990049,2.168744355,"043502, 7-29, LOC 10",BLESA
1,Comerç al detall,6,Automoció,6000000,Vehicles,CARRETILLAS TR CONCESSIONARI OFICIAL CAT LIFT TRUCKS,41.372080626,2.168513685,"043502, 7-25, LOC 20",BLESA
2,Serveis,14,"Restaurants, bars i hotels (Inclòs hostals, pensions i fondes)",1400002,Restaurants,ZAZA,41.373299377,2.165120691,"261004, 43-43, LOC 30",POETA CABANYES
3,Altres,17,Altres,1700600,Activitats de la construcció,"VIVES PROYECTOS INSTALACIONES DE AGUA, GAS, ELECTRICIDAD",41.371826004,2.160197496,"273400, 50-52, LOC 10",RADAS
2,Serveis,16,Altres,1600400,Serveis a les empreses i oficines,GESTORIA SOLER,41.371932684,2.159925252,"241801, 14-18, LOC 20",PALMA
1,Comerç al detall,1,Quotidià alimentari,1000020,Autoservei / Supermercat,LA LLETERIA BIOCOLMADO,41.372936069,2.165518999,"294207, 42-42, LOC 10",SALVÀ
1,Comerç al detall,1,Quotidià alimentari,1000020,Autoservei / Supermercat,SUPERMERCAT COLON,41.3744859,2.174586207,"198804, 17-19, LOC 10",AV PARAL·LEL
1,Comerç al detall,2,Quotidià no alimentari,1008000,Tabac i articles fumadors,TABACS EXP. 89,41.37474655,2.166617364,"198804, 81-81, LOC 10",AV PARAL·LEL
3,Altres,17,Altres,1700200,Associacions,FOMENT EXCURSIONISTA DE BARCELONA,41.37431381,2.161810845,"094707, 6-6, LOC 10",CREU DELS MOLERS
3,Altres,17,Altres,1700100,Administració,"CCAM CONSORCI DE COMERÇ, ARTESANIA I MODA DE CATALUNYA",41.374102471,2.17387408,"270800, 11-13, LOC 10",PUIG I XORIGUER
1,Comerç al detall,1,Quotidià alimentari,1002000,Carn i Porc,CARNS DE RAMADERIA ECOLOGICA CA'L COLOM,41.373764327,2.156882286,"353306, 27-27, LOC 10",VALLHONRAT
2,Serveis,14,"Restaurants, bars i hotels (Inclòs hostals, pensions i fondes)",1400004,Bars especials amb actuació / Bars musicals / Discoteques /PUB,APOLO,41.374481875,2.169732749,"086902, 107-107, LOC 10",NOU DE LA RAMBLA
2,Serveis,14,"Restaurants, bars i hotels (Inclòs hostals, pensions i fondes)",1400004,Bars especials amb actuació / Bars musicals / Discoteques /PUB,APOLO BAILE,41.374336957,2.169495374,"086902, 113-113, LOC 20",NOU DE LA RAMBLA
1,Comerç al detall,5,Oci i cultura,5000000,Informàtica,ASTIM INFORMÀTICA,41.373538897,2.170156538,"052900, 24-24, LOC 20",CABANES
2,Serveis,14,"Restaurants, bars i hotels (Inclòs hostals, pensions i fondes)",1400001,Bars   / CIBERCAFÈ,DPICOS PARDOS PINCHOS & VERMUTS,41.372762968,2.167109549,"043502, 36-36, LOC 10",BLESA
3,Altres,17,Altres,1700500,Activitats industrials,SN,41.373516757,2.167914212,"257700, 51B-51B, LOC 10",PIQUER
2,Serveis,14,"Restaurants, bars i hotels (Inclòs hostals, pensions i fondes)",1400100,serveis d'allotjament,HOSTAL BEDMATES,41.374187007,2.168476135,"361009, 79-79, LOC 10",VILA I VILÀ
2,Serveis,16,Altres,1600400,Serveis a les empreses i oficines,LD GROUP,41.373881068,2.161252946,"108007, 66-66, LOC 10",ELKANO
3,Altres,17,Altres,1700320,Altres equipaments esportius,HIPICA LA FOIXARDA,41.367471108,2.148236185,"217002, 14-16, LOC 20",AV MONTANYANS
3,Altres,17,Altres,1700200,Associacions,LLUIS ARTIGUES FUNDACIO TUTELAR,41.372388587,2.173167318,"218606, 16-18, LOC 30",PG MONTJUÏC
1,Comerç al detall,4,Equipament personal,4003000,Vestir,SOUR SOLUTION,41.374520116,2.159213126,"334301, 3-3, LOC 10",TEODOR BONAPLATA
2,Serveis,10,Equipaments culturals i recreatius,1111111,Equipaments culturals i recreatius,TEATRE GREC,41.369494103,2.159761637,"201909, 26-26, LOC 10",PTGE MARTRAS
1,Comerç al detall,1,Quotidià alimentari,1000020,Autoservei / Supermercat,SUPERMERCAT,41.373036708,2.156548351,"230703, 36-36, LOC 10",MARE DE DÉU DEL REMEI
2,Serveis,14,"Restaurants, bars i hotels (Inclòs hostals, pensions i fondes)",1400001,Bars   / CIBERCAFÈ,MA'ED CUINA ETIOPE,41.373071932,2.156600654,"149503, 10-10, LOC 20",GRASES
2,Serveis,9,Ensenyament,9000000,Ensenyament,LA SALA ESCOLA DE MÚSICA,41.373085015,2.162586004,"043207, 40-40, LOC 10",BLASCO DE GARAY
1,Comerç al detall,1,Quotidià alimentari,1000020,Autoservei / Supermercat,AUTOSERVEI ALIMENTACIÓ,41.374258459,2.168952227,"361009, 64-66, LOC 10",VILA I VILÀ
2,Serveis,14,"Restaurants, bars i hotels (Inclòs hostals, pensions i fondes)",1400002,Restaurants,RESTAURANT EL XALET MONTJUIC,41.369318802,2.164578188,"213307, 31-41, LOC 10",AV MIRAMAR
2,Serveis,14,"Restaurants, bars i hotels (Inclòs hostals, pensions i fondes)",1400002,Restaurants,BAR GALICIA,41.374749569,2.159352601,"198804, 131-131, LOC 30",AV PARAL·LEL
1,Comerç al detall,2,Quotidià no alimentari,2002000,Farmàcies PARAFARMÀCIA,FARMACIA ROSA M MAURI MARTINEZ,41.373216853,2.165878415,"294207, 33-33, LOC 20",SALVÀ
2,Serveis,15,Sanitat i assistència,1500000,Sanitat i assistència,ARTYDENTS,41.373906227,2.159282863,"226309, 6-6, LOC 10",PL LAS NAVAS
2,Serveis,10,Equipaments culturals i recreatius,1111111,Equipaments culturals i recreatius,APOLO CASINO,41.374732461,2.169963419,"086902, 107-109, LOC 50",NOU DE LA RAMBLA
1,Comerç al detall,1,Quotidià alimentari,1000020,Autoservei / Supermercat,SUPERMERCAT,41.374716359,2.155535817,"329902, 85-87, LOC 20",TAMARIT
2,Serveis,14,"Restaurants, bars i hotels (Inclòs hostals, pensions i fondes)",1400002,Restaurants,RESTAURANT LA FRONTERA,41.373584184,2.170529366,"361009, 53-53, LOC 20",VILA I VILÀ
2,Serveis,13,Reparacions (Electrodomèstics i automòbils),1300000,Reparacions (Electrodomèstics i automòbils),TALLERS VILA MOTOR,41.373559025,2.170625925,"361009, 53-53, LOC 10",VILA I VILÀ
1,Comerç al detall,1,Quotidià alimentari,1006000,"Pa, pastisseria i làctics",TARTAS DEL NORTE OBRADOR DE PASTISSOS CASOLANS,41.374042089,2.155958265,"129459, 17-17, LOC 10",FONT HONRADA
1,Comerç al detall,5,Oci i cultura,5000000,Informàtica,MARINA MOBILS 2,41.374760639,2.155491561,"198804, 173-173, LOC 30",AV PARAL·LEL
2,Serveis,16,Altres,1600600,Perruqueries,D'NENI,41.373662683,2.166180164,"294207, 23-23, LOC 10",SALVÀ
1,Comerç al detall,1,Quotidià alimentari,1000020,Autoservei / Supermercat,ASGHAR SUPER,41.373225909,2.155142874,"178400, 17-17, LOC 10",LLEIDA
3,Altres,17,Altres,1700600,Activitats de la construcció,INSTALACIONES T.C.,41.373032683,2.165588737,"294207, 40-40, LOC 10",SALVÀ
2,Serveis,9,Ensenyament,9000000,Ensenyament,HORIZON CHIROPRACTIC,41.374411429,2.160987407,"086301, 8-8, LOC 10",CONCÒRDIA
1,Comerç al detall,3,Parament de la llar,3001000,Floristeries,FLORISERVICE.COM,41.371375129,2.160528749,"118805, 87-91, LOC 20",PG EXPOSICIÓ
2,Serveis,16,Altres,1600500,Agències de viatge,HARIHAR TRAVEL SHALLU COLLECTION,41.373925348,2.167463601,"130006, 9-9, LOC 20",FONTRODONA
3,Altres,17,Altres,1700400,Equipaments religiosos,FIRST UNITED PENTECOSTAL CHURCH OF BARCELONA,41.373502667,2.159274817,"234500, 11-11, LOC 30",OLIVERA
1,Comerç al detall,1,Quotidià alimentari,1002000,Carn i Porc,CARNIVAL MEAT LAB,41.373580159,2.156909108,"234500, 37-37, LOC 10",OLIVERA
2,Serveis,14,"Restaurants, bars i hotels (Inclòs hostals, pensions i fondes)",1400001,Bars   / CIBERCAFÈ,FEEL LAGUNA,41.374010891,2.157060653,"353306, 19-19, LOC 20",VALLHONRAT
2,Serveis,14,"Restaurants, bars i hotels (Inclòs hostals, pensions i fondes)",1400002,Restaurants,BAR RESTAURANT DARLING,41.372710635,2.167238295,"043502, 34-34, LOC 10",BLESA
1,Comerç al detall,7,Altres,7004020,Basars,PINK BAZAR FANTASTIC,41.374511059,2.161078602,"086301, 6-6, LOC 20",CONCÒRDIA
2,Serveis,16,Altres,1600700,Centres d'estètica,KUKO,41.373861946,2.167432755,"130006, 11-11, LOC 10",FONTRODONA
2,Serveis,14,"Restaurants, bars i hotels (Inclòs hostals, pensions i fondes)",1400004,Bars especials amb actuació / Bars musicals / Discoteques /PUB,BAR BARAHONA TROPICAL,41.374363123,2.168587446,"361009, 74-74, LOC 20",VILA I VILÀ
2,Serveis,14,"Restaurants, bars i hotels (Inclòs hostals, pensions i fondes)",1400002,Restaurants,MONTALBAN,41.373197731,2.163489908,"195500, 31-31, LOC 10",MARGARIT
2,Serveis,16,Altres,1600102,Activitats emmagatzematge,SN,41.372816307,2.159843445,"189202, 83-85, LOC 30",MAGALHAES
2,Serveis,16,Altres,1600600,Perruqueries,ADIL PELUQUERIA,41.373111181,2.163451016,"195500, 31-31, LOC 30",MARGARIT
2,Serveis,10,Equipaments culturals i recreatius,1111111,Equipaments culturals i recreatius,ESPAI 12@16 SERVEI TARDA JOVE,41.3726422,2.159560472,"086301, 35-35, LOC 20",CONCÒRDIA
2,Serveis,10,Equipaments culturals i recreatius,1111111,Equipaments culturals i recreatius,"CENTRE CIVIC EL SORTIDOR, LUDOTECA POBLE SEC, CASAL DE GENT GRAN DEL POBLE SEC",41.372053453,2.162525654,"043309, 12-12, LOC 10",PL SORTIDOR
2,Serveis,14,"Restaurants, bars i hotels (Inclòs hostals, pensions i fondes)",1400002,Restaurants,BLUKLA,41.374506028,2.168104649,"361009, 82-82, LOC 10",VILA I VILÀ
2,Serveis,14,"Restaurants, bars i hotels (Inclòs hostals, pensions i fondes)",1400002,Restaurants,RESTAURANTE KASBAH,41.374471811,2.168224007,"361009, 82-82, LOC 20",VILA I VILÀ
1,Comerç al detall,3,Parament de la llar,3002000,Material equipament llar,TOLDOS FIBRATOL SL,41.374063223,2.156490684,"268309, 5-5, LOC 10",PTGE PRUNERA
3,Altres,17,Altres,1700320,Altres equipaments esportius,PISCINES BERNAT PICORNELL,41.365675522,2.151531279,"116402, 30-38, LOC 10",AV ESTADI
2,Serveis,9,Ensenyament,9000000,Ensenyament,JESUÏTES POBLE SEC COL·LEGI SANT PERE CLAVER,41.37320075,2.173423469,"270800, 31-31, LOC 10",PUIG I XORIGUER
2,Serveis,16,Altres,1600400,Serveis a les empreses i oficines,SN,41.371857203,2.161370963,"017105, 15-15, LOC 20",ANNÍBAL
2,Serveis,10,Equipaments culturals i recreatius,1111111,Equipaments culturals i recreatius,MUSEU ETNOLOGIC,41.368849972,2.156180888,"316809, 16-22, LOC 10",PG SANTA MADRONA
1,Comerç al detall,1,Quotidià alimentari,1000020,Autoservei / Supermercat,ALIMENTACIÓ COMESTIBLES CATARS 22,41.371965895,2.164491713,"189202, 22-22, LOC 10",MAGALHAES
1,Comerç al detall,1,Quotidià alimentari,1000020,Autoservei / Supermercat,BONAREA,41.373793512,2.160908282,"273400, 2B-2B, LOC 10",RADAS
1,Comerç al detall,7,Altres,7004020,Basars,BASAR MULTIPREUS,41.374322868,2.168014795,"361009, 89-89, LOC 10",VILA I VILÀ
2,Serveis,14,"Restaurants, bars i hotels (Inclòs hostals, pensions i fondes)",1400002,Restaurants,PIZZERIA LA STRADA,41.373914278,2.170102894,"361009, 48-48, LOC 10",VILA I VILÀ
2,Serveis,14,"Restaurants, bars i hotels (Inclòs hostals, pensions i fondes)",1400001,Bars   / CIBERCAFÈ,LOCANDA SANTA MARTA,41.373891132,2.170194089,"361009, 48-48, LOC 20",VILA I VILÀ
1,Comerç al detall,2,Quotidià no alimentari,1008000,Tabac i articles fumadors,L'ESTANC DEL POBLE SEC,41.373800557,2.161073238,"273400, 19-21, LOC 20",RADAS
3,Altres,17,Altres,1700500,Activitats industrials,L'ESTRANGER FABRICA CULTURAL,41.37354091,2.155172378,"234500, 55-55, LOC 10",OLIVERA
2,Serveis,14,"Restaurants, bars i hotels (Inclòs hostals, pensions i fondes)",1400002,Restaurants,RESTAURANT PA PATXOCA,41.372021248,2.158018202,"133605, 17-17, LOC 10",FRANÇA XICA
2,Serveis,14,"Restaurants, bars i hotels (Inclòs hostals, pensions i fondes)",1400002,Restaurants,BAR RESTAURANT FORTUNY,41.37307797,2.164978534,"261004, 51-51, LOC 10",POETA CABANYES
2,Serveis,16,Altres,1611000,Arranjaments,LIBERACION Y REPARACION MOBILS,41.374809951,2.15648666,"198804, 165-165, LOC 10",AV PARAL·LEL
2,Serveis,14,"Restaurants, bars i hotels (Inclòs hostals, pensions i fondes)",1400001,Bars   / CIBERCAFÈ,EL RACO DEL GUILLEN,41.372700571,2.171216011,"257700, 14-16, LOC 60",PIQUER
2,Serveis,16,Altres,1600102,Activitats emmagatzematge,REDEC,41.373012555,2.171010822,"204204, 7-9, LOC 10",MATA
2,Serveis,16,Altres,1600102,Activitats emmagatzematge,SN,41.372949152,2.170977294,"204204, 7-11, LOC 20",MATA
2,Serveis,16,Altres,1600102,Activitats emmagatzematge,TRASTERS,41.372055466,2.169569135,"052900, 45-45, LOC 10",CABANES
1,Comerç al detall,1,Quotidià alimentari,1000020,Autoservei / Supermercat,SUPERMERCAT ELKANO,41.373304409,2.162828743,"108007, 40-40, LOC 10",ELKANO
2,Serveis,14,"Restaurants, bars i hotels (Inclòs hostals, pensions i fondes)",1400002,Restaurants,SABOR REMEI KEBABISH,41.372937075,2.157363743,"230703, 31-37, LOC 20",MARE DE DÉU DEL REMEI
3,Altres,17,Altres,1700200,Associacions,FUNDACIÓ ESCLEROSI MULTIPLE,41.372936069,2.157280594,"230703, 31-37, LOC 30",MARE DE DÉU DEL REMEI
2,Serveis,16,Altres,1600800,Tintoreries,LAVA XPRES,41.37410549,2.163815796,"195500, 13-13, LOC 20",MARGARIT
2,Serveis,9,Ensenyament,9000000,Ensenyament,SALA CAMINS,41.374106497,2.167218179,"288408, 9-9, LOC 10",ROSER
1,Comerç al detall,2,Quotidià no alimentari,2001000,Drogueria i perfumeria,DISPUNT DROGUERIES PERFUMERIES,41.37278209,2.167058587,"043502, 38-38, LOC 30",BLESA
1,Comerç al detall,4,Equipament personal,4002000,Merceria,MERCERIA SARA,41.372822346,2.166963369,"043502, 38-38, LOC 20",BLESA
2,Serveis,16,Altres,1600600,Perruqueries,QPELOS IMAGEN ESTILO,41.37416386,2.154807597,"329902, 73-73, LOC 30",TAMARIT
2,Serveis,14,"Restaurants, bars i hotels (Inclòs hostals, pensions i fondes)",1400005,Xocolateries / Geladeries / Degustació,DINO GELATO ITALIANO,41.37325107,2.165462673,"043400, 13-13, LOC 30",BLAI
2,Serveis,14,"Restaurants, bars i hotels (Inclòs hostals, pensions i fondes)",1400002,Restaurants,BISTRO TRIPLE SEC,41.374796868,2.160983384,"198804, 115B-115B, LOC 10",AV PARAL·LEL
3,Altres,17,Altres,1700600,Activitats de la construcció,GARO S.L.,41.374471811,2.166717947,"294207, 5-5, LOC 10",SALVÀ
2,Serveis,14,"Restaurants, bars i hotels (Inclòs hostals, pensions i fondes)",1400001,Bars   / CIBERCAFÈ,BAR DALÍAS BOCADILLOS,41.371822985,2.155905962,"178400, 47-47, LOC 10",LLEIDA
3,Altres,17,Altres,1700500,Activitats industrials,RES,41.373544935,2.167824358,"257700, 53-53, LOC 10",PIQUER
2,Serveis,10,Equipaments culturals i recreatius,1111111,Equipaments culturals i recreatius,ESFERIC BCN,41.36802467,2.165517658,"213307, 32I-32I, LOC 10",AV MIRAMAR
2,Serveis,16,Altres,1600400,Serveis a les empreses i oficines,RECICLANDO SONIDOS I BABANEGRA,41.371528105,2.165997773,"189202, 3C-3C, LOC 10",MAGALHAES
3,Altres,17,Altres,1700500,Activitats industrials,SN,41.372608988,2.159331143,"086301, 52-52, LOC 10",CONCÒRDIA
2,Serveis,13,Reparacions (Electrodomèstics i automòbils),1300000,Reparacions (Electrodomèstics i automòbils),TALLER,41.373408067,2.168800682,"257700, 42-42, LOC 20",PIQUER
2,Serveis,14,"Restaurants, bars i hotels (Inclòs hostals, pensions i fondes)",1400002,Restaurants,BAR RESTAURANT STA. MADRONA,41.373438258,2.156351209,"316900, 2-2, LOC 20",PL SANTA MADRONA
3,Altres,17,Altres,1700700,Arts gràfiques,EDITORIAL CANDAYA,41.373343658,2.158436626,"043706, 4-4, LOC 10",BÒBILA
2,Serveis,14,"Restaurants, bars i hotels (Inclòs hostals, pensions i fondes)",1400002,Restaurants,RESTAURANT O MEU LAR BRASERIA,41.373598273,2.163467109,"195500, 24-24, LOC 10",MARGARIT
1,Comerç al detall /Engròs,7,Altres,7005000,Altres,LOTERIAS Y APUESTAS DEL ESTADO ADMIN 268,41.374413441,2.159164846,"334301, 5-5, LOC 20",TEODOR BONAPLATA
3,Altres,17,Altres,1700500,Activitats industrials,PROCHAR 2000 SCP,41.372604963,2.171034962,"257700, 9-9, LOC 10",PIQUER
2,Serveis,15,Sanitat i assistència,1500000,Sanitat i assistència,CLÍNICA DEL PEU NAVAS,41.374357084,2.159163505,"334301, 5-5, LOC 30",TEODOR BONAPLATA
2,Serveis,15,Sanitat i assistència,1500000,Sanitat i assistència,MIDENTISTA,41.374055171,2.163354456,"043400, 45-45, LOC 10",BLAI
2,Serveis,14,"Restaurants, bars i hotels (Inclòs hostals, pensions i fondes)",1400004,Bars especials amb actuació / Bars musicals / Discoteques /PUB,VI & BEERS,41.374089388,2.16326192,"043400, 45-45, LOC 20",BLAI
3,Altres,17,Altres,1700400,Equipaments religiosos,ESGLÉSIA EVANGÈLICA DEL PARAL•LEL,41.374808945,2.156395465,"198804, 167-167, LOC 10",AV PARAL·LEL
2,Serveis,14,"Restaurants, bars i hotels (Inclòs hostals, pensions i fondes)",1400002,Restaurants,BAR RESTAURANT PIZZERIA AL PARAL•LEL,41.374811964,2.156289518,"198804, 167-167, LOC 20",AV PARAL·LEL
1,Comerç al detall,1,Quotidià alimentari,1000020,Autoservei / Supermercat,GUJAR ALIMENTACION,41.373206789,2.16832459,"086902, 133-133, LOC 10",NOU DE LA RAMBLA
3,Altres,17,Altres,1700600,Activitats de la construcció,DERLOS SERVEIS SL MANTENIMENTS I INSTAL•LACIONS,41.373088034,2.168197185,"086902, 139-139, LOC 10",NOU DE LA RAMBLA
3,Altres,17,Altres,1700500,Activitats industrials,TEYSE TECNICA I SERVEIS EN BOMBES,41.372645219,2.170839161,"257700, 13-13, LOC 20",PIQUER
2,Serveis,14,"Restaurants, bars i hotels (Inclòs hostals, pensions i fondes)",1400004,Bars especials amb actuació / Bars musicals / Discoteques /PUB,CHAMAKO,41.373809615,2.163544893,"195500, 18-18, LOC 10",MARGARIT
2,Serveis,11,Finances i assegurances,1100000,Finances i assegurances,MONEY EXCHANGE,41.373366805,2.17121467,"361009, 43-43, LOC 10",VILA I VILÀ
2,Serveis,16,Altres,1600400,Serveis a les empreses i oficines,INFODIGITALMARKETING,41.373303402,2.171163708,"204204, 1-1, LOC 20",MATA
2,Serveis,16,Altres,1600101,Activitats de transport ,DUAMAR,41.373188674,2.171099335,"204204, 3-5, LOC 30",MATA
2,Serveis,16,Altres,1600400,Serveis a les empreses i oficines,HOSTELTIS S.L,41.373074951,2.171041667,"204204, 3-5, LOC 40",MATA
3,Altres,17,Altres,1700200,Associacions,FUNDACIO JOAN MIRO,41.368506768,2.159828693,"213307, 1-1, LOC 10",AV MIRAMAR
1,Comerç al detall,3,Parament de la llar,3002000,Material equipament llar,VID MARC FUSTERIA D'ALUMINI,41.373355734,2.168993801,"175809, 14-14, LOC 10",LAFONT
2,Serveis,10,Equipaments culturals i recreatius,1111111,Equipaments culturals i recreatius,TEATRE CONDAL,41.374784792,2.164762616,"198804, 91B-91B, LOC 30",AV PARAL·LEL
2,Serveis,14,"Restaurants, bars i hotels (Inclòs hostals, pensions i fondes)",1400003,Serveis de menjar take away MENJAR RÀPID,EFSANE ISTANBUL,41.374788818,2.164676785,"198804, 91B-91B, LOC 40",AV PARAL·LEL
2,Serveis,14,"Restaurants, bars i hotels (Inclòs hostals, pensions i fondes)",1400002,Restaurants,METROPOLITAN CAFE,41.374785798,2.164993286,"198804, 91-91, LOC 10",AV PARAL·LEL
2,Serveis,10,Equipaments culturals i recreatius,1111111,Equipaments culturals i recreatius,BINGO CONDAL,41.374785798,2.164881974,"198804, 91-91, LOC 20",AV PARAL·LEL
2,Serveis,9,Ensenyament,9000000,Ensenyament,ESCOLA POBLE-SEC I ESCOLA BRESSOL NIC,41.370726991,2.164690197,"118805, 5-23, LOC 10",PG EXPOSICIÓ
2,Serveis,14,"Restaurants, bars i hotels (Inclòs hostals, pensions i fondes)",1400003,Serveis de menjar take away MENJAR RÀPID,RICO KEBAB PIZZERIA 3,41.374398346,2.16280058,"043400, 54-54, LOC 10",BLAI
1,Comerç al detall,1,Quotidià alimentari,1000020,Autoservei / Supermercat,SUPERMERCAT,41.373822698,2.163971364,"043400, 35-35, LOC 10",BLAI
2,Serveis,16,Altres,1611100,Serveis Socials,EQUIP DE VALORACIO D'ADULTS PARAL•LEL,41.374803913,2.157947123,"198804, 145-145, LOC 10",AV PARAL·LEL
2,Serveis,16,Altres,1600600,Perruqueries,STUDIO,41.373440271,2.155826837,"129459, 24-24, LOC 10",FONT HONRADA
2,Serveis,14,"Restaurants, bars i hotels (Inclòs hostals, pensions i fondes)",1400001,Bars   / CIBERCAFÈ,BODEGA VIDAL,41.372645219,2.167454213,"043502, 30-30, LOC 10",BLESA
2,Serveis,16,Altres,1600102,Activitats emmagatzematge,CORREOS,41.372762968,2.156630158,"149503, 14-18, LOC 20",GRASES
2,Serveis,16,Altres,1600101,Activitats de transport ,SIXT RENT A CAR,41.3742333,2.173022479,"241404, 5-5, LOC 10",PALAUDÀRIES
1,Comerç al detall,1,Quotidià alimentari,1000020,Autoservei / Supermercat,CAPRABO,41.373051804,2.157271206,"230703, 26-32, LOC 20",MARE DE DÉU DEL REMEI
1,Comerç al detall,1,Quotidià alimentari,1002000,Carn i Porc,ROSER CARNS SELECTES,41.374345008,2.162596732,"043400, 55-55, LOC 20",BLAI
3,Altres,17,Altres,1700600,Activitats de la construcció,S. A. M. INSTALACIONES,41.372302036,2.167915553,"043502, 33-33, LOC 10",BLESA
2,Serveis,9,Ensenyament,9000000,Ensenyament,LLAR D'INFANTS LA GAVINA,41.37185519,2.158264965,"086301, 68-82, LOC 10",CONCÒRDIA
1,Comerç al detall,1,Quotidià alimentari,1006000,"Pa, pastisseria i làctics",365 OBRADOR,41.374791837,2.162687927,"198804, 105-107, LOC 10",AV PARAL·LEL
1,Comerç al detall,1,Quotidià alimentari,1000020,Autoservei / Supermercat,SUPERMERCAT PARAL•LEL 24H,41.374791837,2.162563205,"198804, 105-107, LOC 20",AV PARAL·LEL
2,Serveis,16,Altres,1600700,Centres d'estètica,MANIKURATE,41.373983719,2.157043219,"353306, 21-21, LOC 10",VALLHONRAT
2,Serveis,14,"Restaurants, bars i hotels (Inclòs hostals, pensions i fondes)",1400100,serveis d'allotjament,TEATRO HOSTEL,41.373809615,2.173945159,"005401, 12-12, LOC 10",ALBAREDA
1,Comerç al detall,1,Quotidià alimentari,1003000,Fruites i verdures,FRUITERIA MOLINO,41.373912266,2.161106765,"273400, 15-15, LOC 20",RADAS
2,Serveis,16,Altres,1600300,Locutoris,FENIX,41.374025986,2.161149681,"273400, 15-17, LOC 10",RADAS
2,Serveis,14,"Restaurants, bars i hotels (Inclòs hostals, pensions i fondes)",1400001,Bars   / CIBERCAFÈ,BAR APEROL,41.373848863,2.16390565,"043400, 35-35, LOC 20",BLAI
2,Serveis,14,"Restaurants, bars i hotels (Inclòs hostals, pensions i fondes)",1400001,Bars   / CIBERCAFÈ,BAR SOL,41.372279895,2.163707167,"330504, 48-48, LOC 10",TAPIOLES
1,Comerç al detall,2,Quotidià no alimentari,2001000,Drogueria i perfumeria,CLAREL,41.374640881,2.161396444,"273400, 1-1, LOC 20",RADAS
3,Altres,17,Altres,1700700,Arts gràfiques,EMAS SERIGRAFIA,41.372310087,2.159308344,"086301, 45-45, LOC 10",CONCÒRDIA
2,Serveis,14,"Restaurants, bars i hotels (Inclòs hostals, pensions i fondes)",1400001,Bars   / CIBERCAFÈ,BAR RESTAURANT CASA XICA,41.372279895,2.159406245,"133605, 20-20, LOC 20",FRANÇA XICA
2,Serveis,14,"Restaurants, bars i hotels (Inclòs hostals, pensions i fondes)",1400002,Restaurants,NAPOLI CENTRALE,41.372370471,2.162724137,"043309, 15-15, LOC 10",PL SORTIDOR
2,Serveis,16,Altres,1600600,Perruqueries,NOU STYL PERRUQUERIA UNISEX,41.374378218,2.168535143,"361009, 74-74, LOC 10",VILA I VILÀ
2,Serveis,10,Equipaments culturals i recreatius,1111111,Equipaments culturals i recreatius,"FEST'HO COM VULGUIS, COMPANYIA D'ESPECTACLES PER A TOTHOM",41.372112831,2.164368331,"261004, 70-70, LOC 10",POETA CABANYES
2,Serveis,14,"Restaurants, bars i hotels (Inclòs hostals, pensions i fondes)",1400002,Restaurants,FLORI'S BAR RESTAURANT,41.374809951,2.15545401,"198804, 173-173, LOC 40",AV PARAL·LEL
3,Altres,17,Altres,1700200,Associacions,TALLER ARTESÀ ASSOCIACIÓ DE PARES DE DISMINUITS PSIQUICS DEL POBLE SEC,41.373470463,2.164442092,"330504, 27-27, LOC 10",TAPIOLES
3,Altres,17,Altres,1700000,Altres,SALVE STUDIO,41.371907524,2.162859589,"195500, 64-64, LOC 10",MARGARIT
1,Comerç al detall,1,Quotidià alimentari,1001000,Begudes,BODEGA LINARES,41.374448664,2.161030322,"086301, 6-6, LOC 10",CONCÒRDIA
2,Serveis,14,"Restaurants, bars i hotels (Inclòs hostals, pensions i fondes)",1400001,Bars   / CIBERCAFÈ,SNACK BAR LEONÉS 2,41.374255441,2.169149369,"086902, 120-120, LOC 30",NOU DE LA RAMBLA
2,Serveis,11,Finances i assegurances,1100000,Finances i assegurances,SANTANDER,41.374615722,2.167035788,"361009, 101-101, LOC 30",VILA I VILÀ
2,Serveis,13,Reparacions (Electrodomèstics i automòbils),1300000,Reparacions (Electrodomèstics i automòbils),TALLERES A.D.S,41.37274284,2.15814963,"043706, 18-20, LOC 10",BÒBILA
2,Serveis,10,Equipaments culturals i recreatius,1111111,Equipaments culturals i recreatius,LA BASCULA COMPLEX MUSICAL I ESPORTIU,41.3585108,2.145820856,"124706, 8-10, LOC 10",FERROCARRILS CATALANS
2,Serveis,16,Altres,1611100,Serveis Socials,MENJADOR SOCIAL PARAL•LEL,41.374787811,2.163583785,"198804, 97B-97B, LOC 10",AV PARAL·LEL
3,Altres,17,Altres,1700310,Gimnàs /fitnes,BAMBOO BODY,41.372644213,2.169876248,"052900, 31-31, LOC 10",CABANES
1,Comerç al detall,1,Quotidià alimentari,1006000,"Pa, pastisseria i làctics",GELATERIA PICHI,41.372211459,2.155695409,"178400, 41-41, LOC 10",LLEIDA
2,Serveis,14,"Restaurants, bars i hotels (Inclòs hostals, pensions i fondes)",1400002,Restaurants,TAQUERIA EL CHANGARRITO,41.372227562,2.155852318,"129459, 50-50, LOC 20",FONT HONRADA
2,Serveis,10,Equipaments culturals i recreatius,1111111,Equipaments culturals i recreatius,CASAL CONCORDIA,41.372714661,2.159624845,"086301, 33-35, LOC 10",CONCÒRDIA
2,Serveis,16,Altres,1600400,Serveis a les empreses i oficines,CREC COWORKING,41.372162145,2.168301791,"043502, 27-27, LOC 30",BLESA
1,Comerç al detall,2,Quotidià no alimentari,2002000,Farmàcies PARAFARMÀCIA,FARMÀCIA,41.374798881,2.159524262,"198804, 131-131, LOC 10",AV PARAL·LEL
2,Serveis,14,"Restaurants, bars i hotels (Inclòs hostals, pensions i fondes)",1400002,Restaurants,NORI SUSHI&COCKTAILS,41.372515394,2.173053324,"270800, 45-45, LOC 10",PUIG I XORIGUER
1,Comerç al detall,5,Oci i cultura,5000000,Informàtica,CASA DE LA CARCASA,41.373869998,2.163850665,"043400, 37-37, LOC 10",BLAI
1,Comerç al detall,1,Quotidià alimentari,1006000,"Pa, pastisseria i làctics",FORN DE PÀ PASTISSERIA PEDRERES,41.373210814,2.159396857,"061107, 35-35, LOC 10",PEDRERES
2,Serveis,16,Altres,1600600,Perruqueries,D'TITI BARBERSHOP,41.374576474,2.158325315,"281806, 2-2, LOC 10",RICART
2,Serveis,16,Altres,1600400,Serveis a les empreses i oficines,ALVARO PALAU ALDANA ABOGADOS,41.374491938,2.174516469,"198804, 17-19, LOC 20",AV PARAL·LEL
1,Comerç al detall,4,Equipament personal,4000000,Calçat i pell,NOU 132 BRUALLA,41.37358821,2.168460041,"086902, 132-132, LOC 30",NOU DE LA RAMBLA
1,Comerç al detall,1,Quotidià alimentari,1000020,Autoservei / Supermercat,CONDIS,41.372931037,2.166295499,"043400, 3-5, LOC 20",BLAI
2,Serveis,14,"Restaurants, bars i hotels (Inclòs hostals, pensions i fondes)",1400100,serveis d'allotjament,HOSTAL BARCELONA,41.37286864,2.166264653,"288408, 40-40, LOC 10",ROSER
2,Serveis,14,"Restaurants, bars i hotels (Inclòs hostals, pensions i fondes)",1400001,Bars   / CIBERCAFÈ,LA CHANA,41.374473824,2.165749669,"261004, 8-8, LOC 60",POETA CABANYES
2,Serveis,10,Equipaments culturals i recreatius,1111111,Equipaments culturals i recreatius,CENTRE CULTURAL ALBAREDA,41.374005859,2.173262537,"005401, 22-24, LOC 10",ALBAREDA
2,Serveis,16,Altres,1600700,Centres d'estètica,HATHOR PERRUQUERIA I ESTETICA CORPORAL UNISEX,41.3748019,2.157363743,"198804, 151-151, LOC 20",AV PARAL·LEL
1,Comerç al detall,1,Quotidià alimentari,1000020,Autoservei / Supermercat,DIA AND GO,41.373625446,2.158935517,"226309, 15-17, LOC 10",PL LAS NAVAS
1,Comerç al detall,1,Quotidià alimentari,1000020,Autoservei / Supermercat,SUPERMERCAT LLEIDA,41.373724072,2.154867947,"178400, 11-11, LOC 10",LLEIDA
2,Serveis,15,Sanitat i assistència,1500000,Sanitat i assistència,CONSULTORIO MEDICO CIRUGIA VASCULAR VARICES CLINICA DENTAL,41.374326893,2.157296687,"353306, 11-11, LOC 10",VALLHONRAT
1,Comerç al detall,7,Altres,7001000,Maquinària,COMASA EUROPE,41.373143386,2.158341408,"043706, 10-10, LOC 10",BÒBILA
2,Serveis,14,"Restaurants, bars i hotels (Inclòs hostals, pensions i fondes)",1400003,Serveis de menjar take away MENJAR RÀPID,FRESCOS,41.374292676,2.159325778,"226309, 2-2, LOC 20",PL LAS NAVAS
2,Serveis,12,"Manteniment, neteja i producció",1200000,"Manteniment, neteja i similars",PARC DE NETEJA,41.372088678,2.157763392,"133605, 19-19, LOC 10",FRANÇA XICA
3,Altres,17,Altres,1700700,Arts gràfiques,SN,41.372929024,2.16222927,"224303, 5-7, LOC 10",MURILLO
2,Serveis,16,Altres,1611100,Serveis Socials,COLISEE BARCELONA PARAL·LEL,41.374767684,2.16936931,"198804, 63-63, LOC 10",AV PARAL·LEL
2,Serveis,14,"Restaurants, bars i hotels (Inclòs hostals, pensions i fondes)",1400002,Restaurants,PACIFICO,41.374809951,2.15657115,"198804, 163-163, LOC 10",AV PARAL·LEL
2,Serveis,16,Altres,1600102,Activitats emmagatzematge,HOTEL GRUMS BARCELONA,41.372522438,2.17181012,"257700, 2-4, LOC 20",PIQUER
2,Serveis,9,Ensenyament,9000000,Ensenyament,AQUÍ SI AUTOESCOLA,41.374808945,2.156521529,"198804, 163-163, LOC 20",AV PARAL·LEL
1,Comerç al detall,1,Quotidià alimentari,1000020,Autoservei / Supermercat,SUPERMERCAT,41.372909902,2.164109498,"330504, 39-39, LOC 20",TAPIOLES
2,Serveis,16,Altres,1600400,Serveis a les empreses i oficines,IMB,41.37369388,2.160324901,"086301, 26-26, LOC 20",CONCÒRDIA
2,Serveis,16,Altres,1600900,Veterinaris / Mascotes,ARTGOS PERRUQUERIA CANINA,41.374251415,2.162842155,"043400, 51-51, LOC 10",BLAI
3,Altres,17,Altres,1700500,Activitats industrials,MONO30,41.373434233,2.163409442,"195500, 30-30, LOC 10",MARGARIT
1,Comerç al detall,1,Quotidià alimentari,1006000,"Pa, pastisseria i làctics",FORN BLESA,41.372643207,2.167021036,"043502, 43-43, LOC 10",BLESA
1,Comerç al detall,1,Quotidià alimentari,1000020,Autoservei / Supermercat,SUPERMERCAT HARIHAR,41.372936069,2.172126621,"241404, 22-24, LOC 10",PALAUDÀRIES
1,Comerç al detall,1,Quotidià alimentari,1006000,"Pa, pastisseria i làctics",MIRO FLECA ARTESANA,41.373013561,2.172169536,"241404, 22-24, LOC 20",PALAUDÀRIES
2,Serveis,15,Sanitat i assistència,1500000,Sanitat i assistència,GAP ATENCIÓ PSICOLOGICA,41.373113194,2.172140032,"361009, 31-33, LOC 30",VILA I VILÀ
1,Comerç al detall,2,Quotidià no alimentari,2002000,Farmàcies PARAFARMÀCIA,FARMACIA M TERESA SORO MAS,41.372316126,2.170941085,"218606, 36-36, LOC 10",PG MONTJUÏC
1,Comerç al detall,1,Quotidià alimentari,1002000,Carn i Porc,CARNISSERIA M. ROSA,41.373245031,2.156601995,"149503, 6-6, LOC 10",GRASES
1,Comerç al detall,7,Altres,7003020,Fotografia,ARENAIGUALATI,41.373785461,2.160410732,"086301, 22-22, LOC 10",CONCÒRDIA
2,Serveis,16,Altres,1600600,Perruqueries,TRIS TRAS PERRUQUERIA,41.374147758,2.168635726,"361009, 75-75, LOC 20",VILA I VILÀ
1,Comerç al detall,1,Quotidià alimentari,1000020,Autoservei / Supermercat,SUPERMERCAT AYNARA,41.374475836,2.163272649,"043207, 9-9, LOC 10",BLASCO DE GARAY
1,Comerç al detall /Engròs,7,Altres,7005000,Altres,LABOR MATERIAL PARA LABORATORIOS,41.373147411,2.15676561,"149503, 9-9, LOC 10",GRASES
2,Serveis,14,"Restaurants, bars i hotels (Inclòs hostals, pensions i fondes)",1400002,Restaurants,BAR RESTAURANT ANA,41.374809951,2.156233191,"198804, 169-169, LOC 10",AV PARAL·LEL
2,Serveis,14,"Restaurants, bars i hotels (Inclòs hostals, pensions i fondes)",1400004,Bars especials amb actuació / Bars musicals / Discoteques /PUB,BLUE SPACE,41.37481297,2.156132609,"198804, 169-169, LOC 20",AV PARAL·LEL
2,Serveis,16,Altres,1600500,Agències de viatge,RED DIAMOND BARCELONA,41.372916947,2.162285596,"224303, 3-3, LOC 10",MURILLO
2,Serveis,15,Sanitat i assistència,1500000,Sanitat i assistència,EL SORTIDOR CONSULTORI PODOLOGIC,41.372082639,2.162422389,"043309, 10-10, LOC 10",PL SORTIDOR
1,Comerç al detall,2,Quotidià no alimentari,2002000,Farmàcies PARAFARMÀCIA,FARMACIA LOURDES CATAFAL I LLORA,41.37299444,2.166510075,"288408, 39-39, LOC 10",ROSER
2,Serveis,14,"Restaurants, bars i hotels (Inclòs hostals, pensions i fondes)",1400001,Bars   / CIBERCAFÈ,BAR XIROCCO,41.373075958,2.158109397,"230703, 20-20, LOC 10",MARE DE DÉU DEL REMEI
2,Serveis,8,Activitats immobiliàries,8000000,Activitats immobiliàries,FINQUES PAMIES,41.373340639,2.168473452,"086902, 129-129, LOC 30",NOU DE LA RAMBLA
3,Altres,17,Altres,1700600,Activitats de la construcció,M.R. A.M.R.,41.372374497,2.156644911,"149503, 24-24, LOC 10",GRASES
2,Serveis,10,Equipaments culturals i recreatius,1111111,Equipaments culturals i recreatius,MUSEU D'ARQUEOLOGIA DE CATALUNYA,41.37000739,2.15765208,"316809, 37-43, LOC 10",PG SANTA MADRONA
2,Serveis,16,Altres,1600400,Serveis a les empreses i oficines,DEEP,41.373664695,2.161978483,"108007, 62-62, LOC 30",ELKANO
2,Serveis,14,"Restaurants, bars i hotels (Inclòs hostals, pensions i fondes)",1400004,Bars especials amb actuació / Bars musicals / Discoteques /PUB,PLATAFORMA,41.372885749,2.167987972,"086902, 145-145, LOC 10",NOU DE LA RAMBLA
2,Serveis,16,Altres,1600400,Serveis a les empreses i oficines,NAKATOMI RESEARCH,41.373741181,2.161801457,"108007, 62B-62B, LOC 30",ELKANO
1,Comerç al detall,1,Quotidià alimentari,1000020,Autoservei / Supermercat,LONDON SUPERMERCAT,41.374796868,2.160611898,"198804, 117-119, LOC 40",AV PARAL·LEL
2,Serveis,14,"Restaurants, bars i hotels (Inclòs hostals, pensions i fondes)",1400001,Bars   / CIBERCAFÈ,CU CU BRUNCH&TAPAS,41.37242683,2.162742913,"043309, 16-16, LOC 10",PL SORTIDOR
2,Serveis,14,"Restaurants, bars i hotels (Inclòs hostals, pensions i fondes)",1400002,Restaurants,RESTAURANT ELCHE,41.373982712,2.169166803,"361009, 71-71, LOC 10",VILA I VILÀ
2,Serveis,14,"Restaurants, bars i hotels (Inclòs hostals, pensions i fondes)",1400001,Bars   / CIBERCAFÈ,RUFIÁN,41.373760302,2.168894559,"086902, 123-123, LOC 10",NOU DE LA RAMBLA
2,Serveis,16,Altres,1600400,Serveis a les empreses i oficines,REE,41.3746439,2.171052396,"198804, 55-55, LOC 10",AV PARAL·LEL
3,Altres,17,Altres,1700100,Administració,"DEPARTAMENT DE TREBALL, AFERS SOCIALS I FAMILIES",41.373675766,2.17443198,"005401, 2-4, LOC 10",ALBAREDA
2,Serveis,14,"Restaurants, bars i hotels (Inclòs hostals, pensions i fondes)",1400001,Bars   / CIBERCAFÈ,KING PINCHOS TAPAS,41.373611357,2.164529264,"043400, 23-25, LOC 20",BLAI
2,Serveis,16,Altres,1600800,Tintoreries,CITY SEC TINTORERIA,41.37315345,2.162914574,"108007, 31-31, LOC 20",ELKANO
2,Serveis,16,Altres,1600600,Perruqueries,D'PIKETE PERRUQUERIA,41.374572448,2.157272547,"353306, 4-4, LOC 10",VALLHONRAT
2,Serveis,8,Activitats immobiliàries,8000000,Activitats immobiliàries,TECNOCASA,41.374306765,2.159265429,"226309, 2-2, LOC 10",PL LAS NAVAS
2,Serveis,16,Altres,1600700,Centres d'estètica,DVINE NAILS,41.374589556,2.157501876,"353306, 5-5, LOC 10",VALLHONRAT
2,Serveis,14,"Restaurants, bars i hotels (Inclòs hostals, pensions i fondes)",1400002,Restaurants,LA PORCA,41.372956197,2.170758694,"204204, 16-16, LOC 10",MATA
3,Altres,17,Altres,1700500,Activitats industrials,SN,41.373420143,2.166611999,"288408, 28-28, LOC 10",ROSER
2,Serveis,16,Altres,1600000,Pàrquings i garatges,APARCAMENT PÚBLIC,41.374762652,2.153831273,"178400, 2-2, LOC 20",LLEIDA
2,Serveis,15,Sanitat i assistència,1500000,Sanitat i assistència,SERVI-DENT LABORATORI DENTAL,41.371979985,2.166791707,"086902, 164-164, LOC 10",NOU DE LA RAMBLA
2,Serveis,12,"Manteniment, neteja i producció",1200000,"Manteniment, neteja i similars",BOLBORETA,41.373710989,2.163676322,"195500, 19-19, LOC 10",MARGARIT
2,Serveis,16,Altres,1600101,Activitats de transport ,AERI DEL PORT,41.371011811,2.17236802,"213409, 40-40, LOC 20",CTRA MIRAMAR
1,Comerç al detall,2,Quotidià no alimentari,2001000,Drogueria i perfumeria,CLAREL,41.374209147,2.168415785,"361009, 81-81, LOC 10",VILA I VILÀ
2,Serveis,14,"Restaurants, bars i hotels (Inclòs hostals, pensions i fondes)",1400100,serveis d'allotjament,BARCELONA FIFTEEN,41.373499648,2.167263776,"130006, 15-15, LOC 10",FONTRODONA
2,Serveis,9,Ensenyament,9000000,Ensenyament,LA FORJA,41.372410728,2.157990038,"043706, 30-32, LOC 10",BÒBILA
3,Altres,17,Altres,1700100,Administració,GUARDIA URBANA DIPÒSIT A,41.371424444,2.154052556,"332601, 8-8, LOC 10",GUÀRDIA URBANA
3,Altres,17,Altres,1700100,Administració,GUARDIA URBANA OFICINA D'INFORMACIÓ I TRAMITS,41.371839088,2.154114246,"332601, 1-3, LOC 20",GUÀRDIA URBANA
2,Serveis,10,Equipaments culturals i recreatius,1111111,Equipaments culturals i recreatius,FIRA DE BARCELONA SALA DE PREMSA,41.3738861,2.148682773,"114000, 3-4, LOC 20",PL ESPANYA
2,Serveis,8,Activitats immobiliàries,8000000,Activitats immobiliàries,LA VAQUERIA,41.373530846,2.160370499,"086301, 13-13, LOC 10",CONCÒRDIA
2,Serveis,16,Altres,1600102,Activitats emmagatzematge,SN,41.372932043,2.158698142,"230703, 11-11, LOC 10",MARE DE DÉU DEL REMEI
2,Serveis,16,Altres,1600400,Serveis a les empreses i oficines,MEXIGLES,41.374038063,2.155032903,"329902, 74-74, LOC 10",TAMARIT
2,Serveis,16,Altres,1600101,Activitats de transport ,CITY BIKE RENTAL,41.373880061,2.166153342,"294207, 24-24, LOC 10",SALVÀ
2,Serveis,15,Sanitat i assistència,1500000,Sanitat i assistència,CAP POBLE SEC LES HORTES,41.371652901,2.166823894,"086902, 169-169, LOC 10",NOU DE LA RAMBLA
1,Comerç al detall,1,Quotidià alimentari,1002000,Carn i Porc,CANSALADERIA GOMÁ,41.373084009,2.166571766,"288408, 37-37, LOC 10",ROSER
3,Altres,17,Altres,1700200,Associacions,LAKALADA,41.372319145,2.169711292,"052900, 39-39, LOC 10",CABANES
3,Altres,17,Altres,1700200,Associacions,LA LLAR,41.371319776,2.163809091,"118805, 16-20, LOC 10",PG EXPOSICIÓ
3,Altres,17,Altres,1700500,Activitats industrials,ESOTERISMO ARTESANIA KIMERA,41.374423505,2.16377154,"195500, 10-10, LOC 10",MARGARIT
2,Serveis,16,Altres,1600102,Activitats emmagatzematge,SN,41.374196064,2.156407535,"268309, 8-10, LOC 10",PTGE PRUNERA
2,Serveis,12,"Manteniment, neteja i producció",1200000,"Manteniment, neteja i similars",XTERPLAGAS,41.373034695,2.168139517,"086902, 141-141, LOC 10",NOU DE LA RAMBLA
2,Serveis,9,Ensenyament,9000000,Ensenyament,LA FORMIGA,41.374067248,2.160401344,"108007, 74-74, LOC 10",ELKANO
2,Serveis,10,Equipaments culturals i recreatius,1111111,Equipaments culturals i recreatius,EL MOLINO,41.374546282,2.167250365,"361009, 99-99, LOC 10",VILA I VILÀ
3,Altres,17,Altres,1700400,Equipaments religiosos,SALA DEL REGNE DELS TESTIMONIS CRISTIANS DE JEHOVÀ,41.372890781,2.162671834,"043207, 49-49, LOC 10",BLASCO DE GARAY
2,Serveis,14,"Restaurants, bars i hotels (Inclòs hostals, pensions i fondes)",1400003,Serveis de menjar take away MENJAR RÀPID,MCDONALD'S,41.374778754,2.168473452,"198804, 69-69, LOC 10",AV PARAL·LEL
1,Comerç al detall,3,Parament de la llar,3002000,Material equipament llar,MAURI,41.374272549,2.161238194,"273400, 9-9, LOC 20",RADAS
2,Serveis,11,Finances i assegurances,1100000,Finances i assegurances,CENTRAL DE ENVIOS,41.374333938,2.161260992,"273400, 9-9, LOC 10",RADAS
2,Serveis,16,Altres,1600900,Veterinaris / Mascotes,CAMP D'AGILITY CIUTAT COMTAL,41.364747514,2.144855261,"700919, 2-4, LOC 10",POLVORÍ
2,Serveis,14,"Restaurants, bars i hotels (Inclòs hostals, pensions i fondes)",1400002,Restaurants,RESTAURANT MONTE RIO ARIEL,41.37332353,2.167175263,"130006, 19-19, LOC 20",FONTRODONA
3,Altres,17,Altres,1700600,Activitats de la construcció,ATLAS CONSTRU,41.373749232,2.167640626,"257700, 54-54, LOC 20",PIQUER
2,Serveis,14,"Restaurants, bars i hotels (Inclòs hostals, pensions i fondes)",1400002,Restaurants,MALU MORE,41.374001833,2.166231126,"294207, 22-22, LOC 20",SALVÀ
2,Serveis,14,"Restaurants, bars i hotels (Inclòs hostals, pensions i fondes)",1400002,Restaurants,KOBU,41.374248396,2.165764421,"261004, 19-19, LOC 30",POETA CABANYES
3,Altres,17,Altres,1700320,Altres equipaments esportius,ESTADI D'ATLETISME JOAN SERRAHIMA,41.365800329,2.143988907,"700919, 5-7, LOC 10",POLVORÍ
1,Comerç al detall,3,Parament de la llar,3001000,Floristeries,FEDRA,41.374249402,2.157031149,"353306, 16-16, LOC 10",VALLHONRAT
1,Comerç al detall,1,Quotidià alimentari,1000020,Autoservei / Supermercat,SN,41.373363785,2.165510952,"043400, 14-14, LOC 10",BLAI
3,Altres,17,Altres,1700600,Activitats de la construcció,GRUPO SUR,41.371884376,2.164871246,"189202, 16-16, LOC 10",MAGALHAES
2,Serveis,14,"Restaurants, bars i hotels (Inclòs hostals, pensions i fondes)",1400100,serveis d'allotjament,BCN PORT YOMO HOTEL,41.374475836,2.174680084,"198804, 15-15, LOC 30",AV PARAL·LEL
1,Comerç al detall,1,Quotidià alimentari,1000020,Autoservei / Supermercat,SUPERMERCAT EXPRESS,41.374135682,2.161188573,"273400, 13-13, LOC 10",RADAS
2,Serveis,15,Sanitat i assistència,1500000,Sanitat i assistència,ACTIVA'T BY TERAFIS,41.37293003,2.161466181,"094707, 47-47, LOC 10",CREU DELS MOLERS
2,Serveis,14,"Restaurants, bars i hotels (Inclòs hostals, pensions i fondes)",1400002,Restaurants,BAR RESTAURANTE EL GALLEGO,41.372311094,2.160366476,"273400, 38-40, LOC 10",RADAS
2,Serveis,10,Equipaments culturals i recreatius,1111111,Equipaments culturals i recreatius,SALVADISCOS BCN,41.373433226,2.156209052,"316900, 4-4, LOC 10",PL SANTA MADRONA
2,Serveis,14,"Restaurants, bars i hotels (Inclòs hostals, pensions i fondes)",1400100,serveis d'allotjament,BREAK N' BED ALBERG JOVENTUT,41.373970636,2.158055753,"281806, 20-20, LOC 20",RICART
1,Comerç al detall,7,Altres,7004020,Basars,BASAR SOULINK,41.373907234,2.158035636,"281806, 20-20, LOC 10",RICART
3,Altres,17,Altres,1700700,Arts gràfiques,"ARTESANS DEL LLIBRE, LLIBRES EQUADERNACIONS",41.37327321,2.161435336,"094707, 28-28, LOC 10",CREU DELS MOLERS
1,Comerç al detall,1,Quotidià alimentari,1000030,Altres,LA SIRENA,41.374622767,2.166008502,"261004, 5-7, LOC 10",POETA CABANYES
2,Serveis,14,"Restaurants, bars i hotels (Inclòs hostals, pensions i fondes)",1400100,serveis d'allotjament,HOTEL PARAL•LEL,41.3745332,2.165953517,"261004, 5-7, LOC 20",POETA CABANYES
2,Serveis,9,Ensenyament,9000000,Ensenyament,ESCOLA MARISTES ANNA RAVELL,41.372058485,2.162172943,"043207, 52-52, LOC 10",BLASCO DE GARAY
1,Comerç al detall,1,Quotidià alimentari,1000020,Autoservei / Supermercat,YUVI,41.372998465,2.155376226,"230703, 48-48, LOC 20",MARE DE DÉU DEL REMEI
2,Serveis,14,"Restaurants, bars i hotels (Inclòs hostals, pensions i fondes)",1400001,Bars   / CIBERCAFÈ,SPICE SPACE,41.374289657,2.163886875,"195500, 9-9, LOC 10",MARGARIT
2,Serveis,16,Altres,1600700,Centres d'estètica,ESMERALDA INK,41.374245377,2.163870782,"195500, 9-9, LOC 20",MARGARIT
2,Serveis,16,Altres,1600102,Activitats emmagatzematge,SN,41.372153088,2.161026299,"094707, 62-62, LOC 10",CREU DELS MOLERS
1,Comerç al detall,1,Quotidià alimentari,1003000,Fruites i verdures,VERDIFRUIT,41.374548799,2.162071212,"043400, 61-61, LOC 10",BLAI
2,Serveis,16,Altres,1600600,Perruqueries,PERRUQUERIA UNISEX LATINA,41.373289313,2.166530192,"288408, 32-32, LOC 20",ROSER
3,Altres,17,Altres,1700400,Equipaments religiosos,FEZAN-E-MADINA,41.374066242,2.1704261,"052900, 16-16, LOC 20",CABANES
2,Serveis,14,"Restaurants, bars i hotels (Inclòs hostals, pensions i fondes)",1400001,Bars   / CIBERCAFÈ,BAR CAFE NAVAS I CARGOL,41.373781436,2.159113884,"234500, 22-22, LOC 20",OLIVERA
1,Comerç al detall,7,Altres,7004020,Basars,BAZAR LU,41.374805926,2.156611383,"198804, 161-161, LOC 20",AV PARAL·LEL
2,Serveis,14,"Restaurants, bars i hotels (Inclòs hostals, pensions i fondes)",1400001,Bars   / CIBERCAFÈ,DE PATA NEGRA BAR,41.373865972,2.15923056,"226309, 7-7, LOC 10",PL LAS NAVAS
1,Comerç al detall,1,Quotidià alimentari,1000020,Autoservei / Supermercat,SUPER FRESC LA BONA FRUITERIA,41.374295696,2.168112695,"361009, 87-87, LOC 20",VILA I VILÀ
2,Serveis,16,Altres,1600600,Perruqueries,LA TRENCERIA DEL FLOW,41.374749569,2.157402635,"353306, 2-2, LOC 10",VALLHONRAT
2,Serveis,14,"Restaurants, bars i hotels (Inclòs hostals, pensions i fondes)",1400001,Bars   / CIBERCAFÈ,CAN NAVAS,41.374082344,2.159543037,"165306, 15-15, LOC 10",JAUME FABRA
1,Comerç al detall,1,Quotidià alimentari,1002000,Carn i Porc,CARNICERIA HALAL,41.374532193,2.155948877,"129459, 5-5, LOC 10",FONT HONRADA
2,Serveis,13,Reparacions (Electrodomèstics i automòbils),1300000,Reparacions (Electrodomèstics i automòbils),T.M.C.M. S.A. RECTIFICADORA DE MOTORS,41.372699565,2.157633305,"281806, 33-33, LOC 10",RICART
1,Comerç al detall,1,Quotidià alimentari,1000020,Autoservei / Supermercat,A.M.F.F. SUPERMERCAT,41.373201757,2.170171291,"052900, 23-23, LOC 10",CABANES
1,Comerç al detall,2,Quotidià no alimentari,2002000,Farmàcies PARAFARMÀCIA,FARMÀCIA DEL SORTIDOR,41.372270837,2.162009329,"043309, 7-7, LOC 10",PL SORTIDOR
2,Serveis,16,Altres,1600600,Perruqueries,LA MARI PELOS LAB,41.374248396,2.167306691,"288408, 5-5, LOC 20",ROSER
2,Serveis,10,Equipaments culturals i recreatius,1111111,Equipaments culturals i recreatius,PALAU DE CONGRESSOS DE BARCELONA,41.37233726,2.151701599,"278200, 1-13, LOC 60",AV REINA MARIA CRISTINA
2,Serveis,14,"Restaurants, bars i hotels (Inclòs hostals, pensions i fondes)",1400002,Restaurants,CAN LIU,41.374145746,2.163461745,"043400, 42-42, LOC 10",BLAI
3,Altres,17,Altres,1700500,Activitats industrials,MANEL,41.374123605,2.163520753,"043400, 42-42, LOC 20",BLAI
2,Serveis,14,"Restaurants, bars i hotels (Inclòs hostals, pensions i fondes)",1400002,Restaurants,BAR RESTAURANT MORENITA,41.373541916,2.162917256,"043207, 33-33, LOC 10",BLASCO DE GARAY
2,Serveis,16,Altres,1600101,Activitats de transport ,ALGAR DISTRIBUCIONES NAUTICAS,41.372251716,2.168064415,"043502, 31-31, LOC 10",BLESA
2,Serveis,14,"Restaurants, bars i hotels (Inclòs hostals, pensions i fondes)",1400002,Restaurants,LISTO,41.374453696,2.174847722,"068106, 2-6, LOC 20",CARRERA
2,Serveis,16,Altres,1600600,Perruqueries,MEI MEI PERRUQUERIA BY PAOLA ALVARADO,41.374514079,2.160108984,"165306, 7-7, LOC 10",JAUME FABRA
3,Altres,17,Altres,1700320,Altres equipaments esportius,CENTRE D'ESCALADA LA FOIXARDA,41.366468645,2.14813292,"700795, 14-18, LOC 10",CAMÍ FOIXARDA
2,Serveis,16,Altres,1600600,Perruqueries,NAZIR QAISER,41.373477507,2.158716917,"043706, 3-5, LOC 10",BÒBILA
2,Serveis,14,"Restaurants, bars i hotels (Inclòs hostals, pensions i fondes)",1400100,serveis d'allotjament,APARTAMENT BARCELONA,41.374780767,2.16808185,"198804, 75-75, LOC 10",AV PARAL·LEL
2,Serveis,14,"Restaurants, bars i hotels (Inclòs hostals, pensions i fondes)",1400002,Restaurants,HALAL FRIED CHICKEN,41.374778754,2.168024182,"198804, 75-75, LOC 20",AV PARAL·LEL
2,Serveis,14,"Restaurants, bars i hotels (Inclòs hostals, pensions i fondes)",1400001,Bars   / CIBERCAFÈ,BAR LA CAÑADA,41.373394984,2.158674002,"043706, 3-5, LOC 20",BÒBILA
2,Serveis,14,"Restaurants, bars i hotels (Inclòs hostals, pensions i fondes)",1400002,Restaurants,SAMURAI RAMEN,41.373654631,2.15499267,"234500, 80-80, LOC 30",OLIVERA
1,Comerç al detall,2,Quotidià no alimentari,2002000,Farmàcies PARAFARMÀCIA,FARMACIA ARANZANA,41.371390225,2.156154066,"178400, 51-51, LOC 20",LLEIDA
3,Altres,17,Altres,1700600,Activitats de la construcció,MÜLNER INSTALACIONES REPARACIONES,41.373654631,2.166759521,"288408, 22-22, LOC 10",ROSER
2,Serveis,14,"Restaurants, bars i hotels (Inclòs hostals, pensions i fondes)",1400002,Restaurants,BAR RESTAURANT LA BONA CUINA,41.374089388,2.155805379,"129459, 12-12, LOC 20",FONT HONRADA
2,Serveis,14,"Restaurants, bars i hotels (Inclòs hostals, pensions i fondes)",1400001,Bars   / CIBERCAFÈ,MR.FOCACCIA,41.373522795,2.164766639,"043400, 21-21, LOC 30",BLAI
2,Serveis,16,Altres,1600400,Serveis a les empreses i oficines,FITZCARRALDO SL,41.371570375,2.160375863,"118805, 52-52, LOC 20",PG EXPOSICIÓ
2,Serveis,10,Equipaments culturals i recreatius,1111111,Equipaments culturals i recreatius,MUSEU OLÍMPIC DE L'ESPORT JOAN ANTONI SAMARANCH,41.366149278,2.15718048,"234001, 18-18, LOC 10",PG OLÍMPIC
3,Altres,17,Altres,1700600,Activitats de la construcció,SN,41.372885749,2.170023769,"257700, 25-25, LOC 10",PIQUER
2,Serveis,16,Altres,1600102,Activitats emmagatzematge,DECÁNTALO,41.372601944,2.17152983,"257700, 6-8, LOC 10",PIQUER
2,Serveis,14,"Restaurants, bars i hotels (Inclòs hostals, pensions i fondes)",1400002,Restaurants,BAR RESTAURANT JIANZHE,41.374795862,2.162413001,"198804, 111-111, LOC 30",AV PARAL·LEL
2,Serveis,16,Altres,1600102,Activitats emmagatzematge,ICAPDETOT,41.372393619,2.155869752,"129459, 46-46, LOC 10",FONT HONRADA
3,Altres,17,Altres,1700500,Activitats industrials,SN,41.372483189,2.169602662,"052900, 44-44, LOC 20",CABANES
3,Altres,17,Altres,1700000,Altres,SUBESTACIO ELECTRICA MATA,41.373320511,2.172162831,"361009, 30-30, LOC 10",VILA I VILÀ
3,Altres,17,Altres,1700600,Activitats de la construcció,C. M. R. MANTENIMENT I INSTAL•LACIONS,41.373110174,2.170836478,"204204, 8-14, LOC 10",MATA
2,Serveis,14,"Restaurants, bars i hotels (Inclòs hostals, pensions i fondes)",1400004,Bars especials amb actuació / Bars musicals / Discoteques /PUB,LA RONERÍA,41.37465799,2.155935466,"129459, 3-3, LOC 10",FONT HONRADA
1,Comerç al detall,6,Automoció,6000000,Vehicles,JCB BARCELONA,41.374805926,2.158274353,"198804, 141-141, LOC 40",AV PARAL·LEL
2,Serveis,16,Altres,1600800,Tintoreries,LA WASH BUGADERIA AUTOSERVEI,41.373842825,2.168728262,"086902, 126-126, LOC 20",NOU DE LA RAMBLA
2,Serveis,16,Altres,1600400,Serveis a les empreses i oficines,REACTIVA S.A,41.37405014,2.17365548,"270800, 12-12, LOC 10",PUIG I XORIGUER
2,Serveis,14,"Restaurants, bars i hotels (Inclòs hostals, pensions i fondes)",1400001,Bars   / CIBERCAFÈ,NOSSA,41.374341989,2.167371064,"288408, 3-3, LOC 20",ROSER
2,Serveis,10,Equipaments culturals i recreatius,1111111,Equipaments culturals i recreatius,PALAU SANT JORDI,41.363777219,2.152547836,"700798, 6-6, LOC 10",PIERRE DE COUBERTIN
2,Serveis,16,Altres,1600400,Serveis a les empreses i oficines,OO,41.37366067,2.155335993,"234500, 72-72, LOC 10",OLIVERA
1,Comerç al detall,1,Quotidià alimentari,1006000,"Pa, pastisseria i làctics",VAVARI BAKERY&COFFEE,41.374796868,2.160826474,"198804, 117-119, LOC 10",AV PARAL·LEL
2,Serveis,9,Ensenyament,9000000,Ensenyament,U! DANCE ESCUELA DE BAILE,41.372919966,2.148405164,"207304, 11-11, LOC 90",MÈXIC
3,Altres,17,Altres,1700200,Associacions,CASAL LAMBDA,41.373640542,2.162965536,"043207, 29-29, LOC 10",BLASCO DE GARAY
2,Serveis,13,Reparacions (Electrodomèstics i automòbils),1300000,Reparacions (Electrodomèstics i automòbils),JCB,41.374699251,2.158376276,"281806, 2-2, LOC 30",RICART
2,Serveis,14,"Restaurants, bars i hotels (Inclòs hostals, pensions i fondes)",1400001,Bars   / CIBERCAFÈ,LA ESQUINITA DE BLAI,41.373464424,2.165234685,"043400, 16-16, LOC 10",BLAI
2,Serveis,14,"Restaurants, bars i hotels (Inclòs hostals, pensions i fondes)",1400100,serveis d'allotjament,HOSTEL ONE RAMBLAS,41.3737442,2.174167782,"005401, 6-8, LOC 10",ALBAREDA
1,Comerç al detall,1,Quotidià alimentari,1000020,Autoservei / Supermercat,SUPERMERCAT TRADY'S,41.373943463,2.165390253,"261004, 22-22, LOC 10",POETA CABANYES
2,Serveis,13,Reparacions (Electrodomèstics i automòbils),1300000,Reparacions (Electrodomèstics i automòbils),MOTO TALLER GIL,41.37325107,2.158384323,"043706, 8-8, LOC 10",BÒBILA
1,Comerç al detall,1,Quotidià alimentari,1000020,Autoservei / Supermercat,SUPER DISCOUNT,41.374809951,2.154877335,"198804, 177-177, LOC 40",AV PARAL·LEL
3,Altres,17,Altres,1700700,Arts gràfiques,PICTOGRAMA RÈTOLS,41.374382244,2.155101299,"329902, 81-81, LOC 30",TAMARIT
2,Serveis,14,"Restaurants, bars i hotels (Inclòs hostals, pensions i fondes)",1400002,Restaurants,ALA PAR,41.37435004,2.154527307,"178400, 5-5, LOC 20",LLEIDA
2,Serveis,16,Altres,1600102,Activitats emmagatzematge,PUMALU,41.373459392,2.169256657,"175809, 7-7, LOC 20",LAFONT
2,Serveis,14,"Restaurants, bars i hotels (Inclòs hostals, pensions i fondes)",1400100,serveis d'allotjament,CASA MONTJUÏC,41.373844838,2.169652283,"361009, 63-67, LOC 10",VILA I VILÀ
1,Comerç al detall,1,Quotidià alimentari,1005000,Ous i aus,POLLERIA HUEVERIA CAZA,41.373284281,2.170021087,"052900, 30-30, LOC 10",CABANES
2,Serveis,14,"Restaurants, bars i hotels (Inclòs hostals, pensions i fondes)",1400002,Restaurants,RESTAURANT CAÑOTA,41.374145746,2.154634595,"178400, 7-7, LOC 20",LLEIDA
2,Serveis,14,"Restaurants, bars i hotels (Inclòs hostals, pensions i fondes)",1400002,Restaurants,RESTAURANT RIAS KRU,41.374304753,2.154546082,"178400, 7-7, LOC 10",LLEIDA
3,Altres,17,Altres,1700600,Activitats de la construcció,REFORMES PARAL•LEL,41.374789824,2.16288507,"198804, 103-103, LOC 10",AV PARAL·LEL
2,Serveis,16,Altres,1600101,Activitats de transport ,BYMAR FREIGHT FORWARDERS,41.373761308,2.174102068,"005401, 10-10, LOC 20",ALBAREDA
2,Serveis,14,"Restaurants, bars i hotels (Inclòs hostals, pensions i fondes)",1400001,Bars   / CIBERCAFÈ,LA VICIOSA,41.373748225,2.166232467,"294207, 21-21, LOC 10",SALVÀ
2,Serveis,14,"Restaurants, bars i hotels (Inclòs hostals, pensions i fondes)",1400100,serveis d'allotjament,HOSTAL RIO DE CASTRO,41.374797875,2.16066286,"198804, 117-119, LOC 30",AV PARAL·LEL
2,Serveis,16,Altres,1600700,Centres d'estètica,TS.S. ESTETICA PERRUQUERIA,41.374617735,2.159257382,"334301, 1-1, LOC 10",TEODOR BONAPLATA
2,Serveis,14,"Restaurants, bars i hotels (Inclòs hostals, pensions i fondes)",1400002,Restaurants,DERA,41.374424511,2.166522145,"294207, 10-10, LOC 20",SALVÀ
3,Altres,17,Altres,1700500,Activitats industrials,CAP DE SURO,41.372314113,2.16053009,"273400, 63-63, LOC 10",RADAS
1,Comerç al detall,7,Altres,7004020,Basars,JELP CACTUS,41.374737493,2.167841792,"130006, 1-1, LOC 20",FONTRODONA
2,Serveis,16,Altres,1600102,Activitats emmagatzematge,QURESHI,41.373315479,2.155987769,"129459, 29-29, LOC 10",FONT HONRADA
1,Comerç al detall,1,Quotidià alimentari,1000020,Autoservei / Supermercat,BONA COMPRA MIAN BROTHER,41.372643207,2.166294158,"288408, 51-53, LOC 10",ROSER
2,Serveis,15,Sanitat i assistència,1500000,Sanitat i assistència,NICOLAS DREÁN,41.372908895,2.1654962,"294207, 44-44, LOC 10",SALVÀ
2,Serveis,14,"Restaurants, bars i hotels (Inclòs hostals, pensions i fondes)",1400002,Restaurants,BAR MOMBIELA,41.373024631,2.172448486,"361009, 27-27, LOC 10",VILA I VILÀ
2,Serveis,11,Finances i assegurances,1100000,Finances i assegurances,EXCHANGE,41.374261479,2.1671471,"288408, 6-6, LOC 10",ROSER
3,Altres,17,Altres,1700500,Activitats industrials,SN,41.372471112,2.159402221,"086301, 41-41, LOC 10",CONCÒRDIA
2,Serveis,14,"Restaurants, bars i hotels (Inclòs hostals, pensions i fondes)",1400002,Restaurants,BAR RESTAURANT EL BOTON CHARRO,41.374513072,2.174269706,"198804, 21-21, LOC 10",AV PARAL·LEL
2,Serveis,16,Altres,1611100,Serveis Socials,SANT JOAN DE DÉU SERVEIS SOCISLS-BARCELONA,41.373118226,2.161922157,"224303, 16-16, LOC 10",MURILLO
2,Serveis,16,Altres,1600400,Serveis a les empreses i oficines,SERVIFIRA BUILDUP,41.374705289,2.150663584,"114000, 2-2, LOC 30",PL ESPANYA
3,Altres,17,Altres,1700200,Associacions,ALCOHOLICS ANONIMS,41.372810269,2.172275484,"241404, 25-27, LOC 20",PALAUDÀRIES
2,Serveis,15,Sanitat i assistència,1500000,Sanitat i assistència,INNOVACIÓ PODOLOGICA,41.373394984,2.170081437,"052900, 28-28, LOC 10",CABANES
2,Serveis,14,"Restaurants, bars i hotels (Inclòs hostals, pensions i fondes)",1400001,Bars   / CIBERCAFÈ,SYRA COFFEE,41.373787474,2.163704485,"195500, 17-17, LOC 20",MARGARIT
3,Altres,17,Altres,1700500,Activitats industrials,TALLER ARTESÀ,41.37078939,2.16519177,"118805, 2-8, LOC 10",PG EXPOSICIÓ
2,Serveis,16,Altres,1611000,Arranjaments,RAPID ALEX,41.37408335,2.157116979,"353306, 17-17, LOC 20",VALLHONRAT
2,Serveis,16,Altres,1600102,Activitats emmagatzematge,RESTAURANT O MEU LAR BRASERIA,41.373537891,2.16361329,"195500, 23-23, LOC 10",MARGARIT
3,Altres,17,Altres,1700200,Associacions,ASSOCIACIO DE VEÏNS POBLE SEC,41.373491597,2.163591832,"195500, 23-23, LOC 20",MARGARIT
2,Serveis,16,Altres,1600600,Perruqueries,CLARA,41.37395252,2.162907869,"043207, 16-16, LOC 10",BLASCO DE GARAY
2,Serveis,16,Altres,1611100,Serveis Socials,SOCIO HABITATGE,41.372056472,2.160094231,"241801, 24-26, LOC 10",PALMA
2,Serveis,16,Altres,1600102,Activitats emmagatzematge,SN,41.374563391,2.163307518,"043207, 5-5, LOC 10",BLASCO DE GARAY
2,Serveis,10,Equipaments culturals i recreatius,1111111,Equipaments culturals i recreatius,ATENEU REBEL,41.373054823,2.155840248,"129459, 32-34, LOC 20",FONT HONRADA
2,Serveis,16,Altres,1600600,Perruqueries,PERRUQUERIA LIGIA,41.372897826,2.172872275,"361009, 19-19, LOC 20",VILA I VILÀ
3,Altres,17,Altres,1700600,Activitats de la construcció,SINCRO INTERIORISME&REFORMA INTRGRAL,41.373083002,2.148187906,"207304, 7-7, LOC 60",MÈXIC
2,Serveis,16,Altres,1600102,Activitats emmagatzematge,SN,41.373050798,2.165769786,"294207, 35-35, LOC 30",SALVÀ
2,Serveis,16,Altres,1600102,Activitats emmagatzematge,TRASTERS DEL BARRI,41.374388282,2.157346308,"353306, 9-9, LOC 10",VALLHONRAT
2,Serveis,14,"Restaurants, bars i hotels (Inclòs hostals, pensions i fondes)",1400002,Restaurants,AL BISTRO,41.374423505,2.162744254,"043400, 56-58, LOC 10",BLAI
1,Comerç al detall,1,Quotidià alimentari,1006000,"Pa, pastisseria i làctics",PUNT DOLÇ,41.373931387,2.158715576,"226309, 10-10, LOC 10",PL LAS NAVAS
2,Serveis,13,Reparacions (Electrodomèstics i automòbils),1300000,Reparacions (Electrodomèstics i automòbils),LOBOMOTOS BCN,41.37438325,2.157138437,"353306, 10-10, LOC 10",VALLHONRAT
2,Serveis,16,Altres,1600102,Activitats emmagatzematge,SN,41.374454703,2.168268263,"361009, 80-80, LOC 10",VILA I VILÀ
2,Serveis,14,"Restaurants, bars i hotels (Inclòs hostals, pensions i fondes)",1400004,Bars especials amb actuació / Bars musicals / Discoteques /PUB,ROUGE COCKTAIL CLUB,41.374175937,2.165713459,"261004, 21-21, LOC 10",POETA CABANYES
2,Serveis,16,Altres,1600500,Agències de viatge,BCN MONTJUIC TOURIST POINT,41.373385926,2.162325829,"108007, 41-41, LOC 10",ELKANO
2,Serveis,9,Ensenyament,9000000,Ensenyament,L'ARCA,41.374366142,2.160947174,"086301, 10-10, LOC 10",CONCÒRDIA
1,Comerç al detall,1,Quotidià alimentari,1002000,Carn i Porc,AL BARAKA CARNISSERIA,41.374649939,2.161810845,"043400, 63-63, LOC 40",BLAI
1,Comerç al detall,1,Quotidià alimentari,1000020,Autoservei / Supermercat,SUPERMERCAT VILA VILA,41.372913928,2.172809243,"361009, 21-21, LOC 10",VILA I VILÀ
2,Serveis,16,Altres,1600600,Perruqueries,PERRUQUERS BAUSO,41.374495964,2.165036201,"330504, 7-9, LOC 160",TAPIOLES
1,Comerç al detall,1,Quotidià alimentari,1000020,Autoservei / Supermercat,SN,41.372497278,2.172117233,"241404, 29-31, LOC 20",PALAUDÀRIES
2,Serveis,14,"Restaurants, bars i hotels (Inclòs hostals, pensions i fondes)",1400002,Restaurants,XILOKA,41.373578146,2.170168608,"052900, 22-22, LOC 10",CABANES
2,Serveis,16,Altres,1600102,Activitats emmagatzematge,HOTEL NUEVO TRIUNFO,41.373096085,2.169895023,"052900, 36-36, LOC 20",CABANES
2,Serveis,16,Altres,1600900,Veterinaris / Mascotes,VETERINARI,41.373260127,2.163349092,"195500, 34-34, LOC 10",MARGARIT
1,Comerç al detall,3,Parament de la llar,3000000,Aparells domèstics,LA COMPETENCIA,41.373480527,2.160131782,"086301, 32-32, LOC 20",CONCÒRDIA
2,Serveis,16,Altres,1600600,Perruqueries,MARIBEL PERRUQUERIA UNISEX,41.373356741,2.159997672,"086301, 32-32, LOC 10",CONCÒRDIA
3,Altres,17,Altres,1700320,Altres equipaments esportius,PISTES D'AEROMODELISME DE MONTJUIC,41.364332825,2.15788275,"234001, 16V-16V, LOC 10",PG OLÍMPIC
2,Serveis,16,Altres,1600101,Activitats de transport ,BIKESEC BARCELONA,41.373261134,2.165097892,"261004, 45-45, LOC 10",POETA CABANYES
2,Serveis,14,"Restaurants, bars i hotels (Inclòs hostals, pensions i fondes)",1400001,Bars   / CIBERCAFÈ,BAR CERVESERIA 128,41.373760302,2.168638408,"086902, 128-128, LOC 20",NOU DE LA RAMBLA
2,Serveis,14,"Restaurants, bars i hotels (Inclòs hostals, pensions i fondes)",1400001,Bars   / CIBERCAFÈ,CACTUS CAFÉ,41.374348027,2.163050026,"043207, 10-10, LOC 20",BLASCO DE GARAY
2,Serveis,16,Altres,1600400,Serveis a les empreses i oficines,PARASIE ET SUÁREZ ESTUDI D'ARQUITECTURA,41.371595535,2.161467522,"118805, 44-44, LOC 10",PG EXPOSICIÓ
1,Comerç al detall,2,Quotidià no alimentari,2002000,Farmàcies PARAFARMÀCIA,FARMACIA GARCÉS,41.374333938,2.162973583,"043400, 50-50, LOC 10",BLAI
2,Serveis,14,"Restaurants, bars i hotels (Inclòs hostals, pensions i fondes)",1400002,Restaurants,RESTAURANT O BARCO,41.373851883,2.15479821,"178400, 9-9, LOC 10",LLEIDA
2,Serveis,14,"Restaurants, bars i hotels (Inclòs hostals, pensions i fondes)",1400001,Bars   / CIBERCAFÈ,TOT EURO BAR,41.374006865,2.163096964,"043207, 15-15, LOC 10",BLASCO DE GARAY
2,Serveis,14,"Restaurants, bars i hotels (Inclòs hostals, pensions i fondes)",1400002,Restaurants,RESTAURANT CAN EUSEBIO,41.374534206,2.167996019,"361009, 84-84, LOC 10",VILA I VILÀ
2,Serveis,16,Altres,1600200,Serveis de telecomunicacions,SN,41.371446585,2.165523022,"288408, 93-93, LOC 20",ROSER
2,Serveis,16,Altres,1611100,Serveis Socials,RESIDENCIA PER A PERSONES AMB DISCAPACITAT INTEL LECTUAL TRES PINS,41.366484749,2.160851955,"700701, 9-11, LOC 10",DOCTOR FONT I QUER
3,Altres,17,Altres,1700100,Administració,ESPAI BOMBERS,41.373680797,2.154536694,"178400, 30-30, LOC 10",LLEIDA
1,Comerç al detall,2,Quotidià no alimentari,2001000,Drogueria i perfumeria,CLAREL,41.372471112,2.166013867,"288408, 56-58, LOC 10",ROSER
2,Serveis,14,"Restaurants, bars i hotels (Inclòs hostals, pensions i fondes)",1400001,Bars   / CIBERCAFÈ,BAR SUSHI WAY,41.374811964,2.156435698,"198804, 165-165, LOC 20",AV PARAL·LEL
3,Altres,17,Altres,1700320,Altres equipaments esportius,CAMP DE FUTBOL LA SATALIA,41.370458274,2.162289619,"195500, 63-79, LOC 10",MARGARIT
2,Serveis,16,Altres,1600102,Activitats emmagatzematge,SN,41.373751244,2.161309272,"108007, 53-53, LOC 10",ELKANO
